city,name,address,cuisine,rating,votes,cost,Latitude,Longitude
Abohar,FOODY MOOD,"FOODY MOOD, Arya nagar St no 7 Abohar, Abohar (M Cl),  Fazilka 1(Abohar), Fazilka, Punjab - 152116","Fast Food,Chinese",4.7,20,300,30.1367045,74.2094572
Adityapur,Kwality Walls Frozen Dessert and Ice Cream Shop,"Kwality Walls Frozen Dessert and Ice Cream Shop, Shop No.1(II), B. No.1, Mango Bus Stand, P.S. Sakchi, P.S. Sitaramdera , District - Purbi Singhbhum, STATE - Jharkhand",Desserts,4.8,20,300,22.8024088,86.219026
Adityapur,Grameen Kulfi,"Grameen Kulfi, 1st Floor, Outer Circle Rd, Dey Complex, Building No.5, near Kantilal Medica Hospital, South Park, Bistupur, Jamshedpur, Jharkhand 831001","Ice Cream,Desserts",4.5,100,120,22.786939,86.177834
Adityapur,Equinox,"Equinox, The Sonnet Hotel, Contractor Area","Indian,Chinese",4.5,20,400,,
Adityapur,Thanco's Natural Ice Cream,"Thanco's Natural Ice Cream, Bistupur main road",Ice Cream,4.5,20,299,22.7925193,86.1840779
Adityapur,Baskin Robbins,"Baskin Robbins, EW20,MAIN ROAD, BISTUPUR NEAR BANK OF BARODA JAMSHEDPUR EAST SINGHBHUM, JHARKHAND","Desserts,Ice Cream",4.6,50,250,22.7934741,86.183907
Adityapur,Mathura Mistan Bhandar,"Mathura Mistan Bhandar, Kadma Bazar,Jamshedpur, Jharkhand-831005","Sweets,Snacks",4.5,100,200,22.8063295,86.1619826
Adityapur,The Belgian Waffle Co.,"The Belgian Waffle Co., RISHAB SHANTI APARTMENT  142  SHOP NO 2  AAMBAGAN ROAD  SAKCHI  JAMSHEDPUR 831001","Beverages,Desserts",4.5,100,200,22.8074816,86.203125
Adityapur,VADILAL ICE CREAMS,"VADILAL ICE CREAMS, RAJESH KESHRI-JAMSHEDPUR-33 Kasidih Bustee-LineNo 1, Near Sidhi VinayakMandir, Kasidih, SakchiJamshedpur Urban, PurbiSinghbhum, Jharkhand-831001",Ice Cream,4.6,50,200,24.3956038,81.8825279
Adityapur,Dosa Cafe (Hotel Ganga Regency),"Dosa Cafe (Hotel Ganga Regency), 171, KASIDIH NEWLAYOUT, SAKCHI, Sakchi,  Jamshedpur Urban, Purbi Singhbhum,  Jharkhand - 831001",South Indian,4.5,100,199,22.8102338,86.2105671
Adityapur,The Cake House,"The Cake House, House No-57,Kishori Nagar,Hume Pipe,Near New Civil court,Bagalgora,Jamshedpur,Purbi Singhbhum,Jharkhand-831001",Bakery,4.5,20,399,22.8107443,86.2113529
Adityapur,PUJA SWEETS BHALUBASA,"PUJA SWEETS BHALUBASA, SAI JAMBU TOWER BHALUBASA JAMSHEDPUR","Bengali,Sweets",4.6,50,100,22.8040905,86.2154526
Agartala,Sherowali Snacks and Bakery,"Sherowali Snacks and Bakery, Opp of LN Bari, LN Bari Road, Agartala","Bakery,Snacks",4.5,50,150,23.8339061,91.2838823
Agartala,Rahul fast Food Egg Cake,"Rahul fast Food Egg Cake, 2nd floor, City center, RMS Chowmuhani, room13th, Agartala, Tripura 799001, India",Fast Food,4.5,20,100,23.8290201,91.2746075
Agartala,Rock N Roll,"Rock N Roll, Krishna Nagar,Near Sanghati Club, Krishna Nagar, Agartala, Tripura 799001, India","North Indian,Chinese",4.5,20,175,23.8443515,91.2863387
Agra,Panchhi Petha,"Panchhi Petha, Shop No 1 , Upadhyay Market, Hari Parvat crossing , opposite Hari Parvat police station.",Desserts,4.5,50,200,27.4019329,78.4207695
Agra,Pablo Premium Kitchen,"Pablo Premium Kitchen, 9th FLOOR, 109, CORPORATE PARK SANJAY  PLACE AGRA,","Indian,Chinese",5,20,300,27.2000363,78.00823
Agra,Behrouz Biryani,"Behrouz Biryani, 36/395/1 NH-2, By pass, Nehru Nagar, Adjacent Shree Talkies Agra, Uttar Pradesh 282002","Biryani,Mughlai",4.6,100,500,27.2095418,78.0075787
Agra,The best diet corner,"The best diet corner, 30/110A, Buri Ka Nagla, Khandari, Agra, Uttar Pradesh 282001, India","Indian,Beverages",5,20,200,27.2011532,77.9584046
Ahmednagar,Bansi Maharaj,"Bansi Maharaj, Gulmohar road, savedi, Ahmednagar 414003","Sweets,Snacks",4.6,20,200,19.1213308,74.7370157
Ahmednagar,BHOLES ROLLS & CAFE,"BHOLES ROLLS & CAFE, PLOT NO 54 BHUSHAN NAGAR  Kedgaon, Ahmednagar, Maharashtra 414005, India",Lebanese,4.6,20,100,19.0690964,74.7107298
Ajmer,NIC Natural Ice Creams,"NIC Natural Ice Creams, Shop No 02 ,Ground Floor, Priyanshi Residency, Christian Gunj Rd, Mali Mohalla, Ajmer, Rajasthan 305001","Ice Cream,Desserts",4.6,100,120,26.4779092,74.6354578
Ajmer,Grameen Kulfi,"Grameen Kulfi, Shop No 02 ,Ground Floor, Priyanshi Residency, Christian Gunj Rd, Mali Mohalla, Ajmer, Rajasthan 305001","Ice Cream,Desserts",4.7,50,120,26.4779092,74.6354578
Alappuzha,Pastry Chef,"Pastry Chef, Near Chakkarakadavu Pally, Sea View ward, Alappuzha",Bakery,4.5,50,600,9.4979663,76.3360293
Alappuzha,Cakelers,"Cakelers, GROUND FLOOR, SAS MAHAL COMPLEX, SEA VIEW WARD, Alappuzha, Kerala","Bakery,Beverages",4.6,50,150,9.4997358,76.3332941
Alappuzha,Cakemellow,"Cakemellow, Nirmalyam, Aarattuvazhi Ward, Alappuzha",Bakery,4.6,20,400,9.5049417,76.326739
Alappuzha,Veg Palace,"Veg Palace, AATTD Arattukulakkara Complex, Anantha Narayanapuram, Alappuzha, Kerala 688011, India",South Indian,4.7,50,150,9.4900613,76.3394474
Aligarh,Grameen Kulfi,"Grameen Kulfi, SHOP AT GALI NO 3, MANDIR WALA MARKET, OPP. TAJ HOSPITAL, NEAR KELA NAGAR CHURAHA, ALIGARH,UP-202001","Ice Cream,Desserts",4.7,50,120,27.9032728,78.0919761
Aligarh,Barfiz the sweet store,"Barfiz the sweet store, Regency Plaza, Opp. Punjab National Bank, Medical Road, Aligarh, Uttar Pradesh 202001, India","Desserts,Sweets",4.5,20,150,27.9120026,78.0845476
Aligarh,Pahalwan Lassi Wale & Sweets,"Pahalwan Lassi Wale & Sweets, Khai Dora, Zone 7, Aligarh Locality, Aligarh,Test-Aligarh,Aligarh",Indian,4.7,100,250,27.8784476,78.0691789
Aligarh,STAR RESTAURANT,"STAR RESTAURANT, SURYA VIHAR COLONY NEAR KAVERI VATIKA, ALIGARH","North Indian,Indian",4.5,20,300,27.8865101,78.0872999
Allahabad,Kamdhenu,"Kamdhenu, 1, Elgin Road, Civil Lines, Prayagraj","Bakery,Chaat",4.5,50,300,25.4538547,81.8292529
Allahabad,The Belgian Waffle Co.,"The Belgian Waffle Co., 27A/7/17 VINAYAK COMPLEX, LBS MARG, ELGIN ROAD, CIVIL LINES, PRAYAGRAJ- 211001","Desserts,Beverages",4.5,100,200,25.4524535,81.8369532
Allahabad,The Baking Co. ( By Elchico),"The Baking Co. ( By Elchico), 142A, 32, Mahatma Gandhi, Civil Lines, Allahabad- 211001","Bakery,Fast Food",4.5,50,200,25.451053,81.83359
Allahabad,NIC Natural Ice Creams,"NIC Natural Ice Creams, Building No12/12, Ground Floor, Shop No-2, TB Sapru Marg,Mayo Hall,Prayagraj, Uttar Pradesh-211001","Ice Cream,Desserts",4.6,500,120,25.4675547,81.8166071
Allahabad,Grameen Kulfi,"Grameen Kulfi, Building No12/12, Ground Floor, Shop No-2, TB Sapru Marg,Mayo Hall,Prayagraj, Uttar Pradesh-211001","Ice Cream,Desserts",4.7,100,120,25.4675547,81.8166071
Allahabad,MICHAEL SARDARJI,"MICHAEL SARDARJI, 5 , Ashoka Road, gate 1, near High court, Prayagraj, Uttar Pradesh 211001",Indian,4.5,50,240,25.4578135,81.8206995
Allahabad,Mohan Lassi Bhandar,"Mohan Lassi Bhandar, 18/36 Sarai Mir Khan,NAGAR NIGAM FOOD SAFETY ZONE-06,PRAYAGRAJ,UTTAR PRADESH-211003","Beverages,Sweets",4.7,20,300,26.0052917,82.9447782
Allahabad,Domino's Pizza,"Domino's Pizza, Ground Floor,31A/31Plot No. Qq1Civil StationSardar Patel Marg",Pizzas,4.5,100,400,,
Allahabad,Vaishnavi Kitchen,"Vaishnavi Kitchen, 76/1 Ganesh Nagar Muirabad, Allahabad,Allahabad Tahsil, Prayagraj,","Indian,Snacks",4.6,20,300,25.4789124,81.8456593
Alwar,Grameen Kulfi,"Grameen Kulfi, Shop No 01, Old Station Rd, Alwar, Rajasthan 301001","Ice Cream,Desserts",4.5,20,120,27.5631105,76.6173726
Ambala,Kakoo Zee Ice Cream,"Kakoo Zee Ice Cream, Shop No.4,Opp. Capital Cinema, Ambala Cantt","Ice Cream,Beverages",4.6,20,200,30.3472614,76.8362097
Ambikapur,Tibet Kitchen,"Tibet Kitchen, OLD BUS STAND, SHIVDHARI ARCADE SHOP NO 9 BHAGWANPUR, AMBIKAPUR","Indian,Chinese",4.6,50,200,23.1185519,83.1930308
Ambur,IBACO,"IBACO, DOOR NO: P3, SHOP NO 1,2,3,4, GROUND FLOOR NEXT MOGHAL RESTAURANT, M C ROAD NH48, AMBUR -635802","Ice Cream,Desserts",4.6,20,200,12.7809197,78.7183865
Ambur,N.R.BRIYANI & KABAB,"N.R.BRIYANI & KABAB, no:95,opp to K.M. Hospital,M.C.road,Ambur-635802","Fast Food,Arabian",4.8,20,250,12.785924,78.721776
Amreli,Akshar Restaurant,"Akshar Restaurant, Station Road Sahajanand Market 1st Floor,Amreli","North Indian,Punjabi",4.7,20,150,21.6012253,71.2193562
Amritsar,Shri Krishna Misthan Bhandar Mandir Shri Longawali  Devi Ji,"Shri Krishna Misthan Bhandar Mandir Shri Longawali  Devi Ji, Mandir shri longawali devi town hall amritsar","Sweets,Snacks",4.5,100,250,31.6248216,74.8785421
Amritsar,Kwality Walls Frozen Dessert and Ice Cream Shop,"Kwality Walls Frozen Dessert and Ice Cream Shop, SHOP NO 7, SHIVALA ROAD, NEAR SHIVALA MANDIR, , Police Station A, Amritsar 1(P/S A,B,C,D,E and Sadar,Islamabad,Gate Hakima), Amritsar, Punjab, 143001",Ice Cream,4.6,50,300,31.6134016,74.8642366
Amritsar,Keventers - Milkshakes and Desserts,"Keventers - Milkshakes and Desserts, Near Summer Palace of Maharaja Ranjit Singh Andcrystel Chowk, M/s Food Library Connected to Cooper Road and Queen Road, Amritsar , Amritsar, Punjab-143001","Beverages,Ice Cream",4.5,50,300,31.6355774,74.8759716
Amritsar,V Cafe - Meals By PVR,"V Cafe - Meals By PVR, PVR LTD, Suraj Chanda tara City Centre near bus stand Maha Singh Gate Road Amritsar 143001","Pizzas,Snacks",4.8,20,400,31.6278971,74.8837778
Amritsar,Vaango,"Vaango, Food Court , G.T. Road Maharaja Ranjit Singh Nagar, Urban Haat. Ram Bhag, Amritsar, Punjab 143001",South Indian,4.5,20,250,31.6359769,74.8774829
Amritsar,Ghar Ka Khana,"Ghar Ka Khana, Pragdass chowk opposite gali nichanchiyan amritsar","North Indian,Chinese",4.5,50,200,31.6181023,74.880001
Amritsar,NIC Natural Ice Creams,"NIC Natural Ice Creams, Cafe Chokolade, 101, District Shopping Center, B - Block, Ranjit Avenue, Amritsar, Punjab 143001","Desserts,Ice Cream",4.5,500,120,31.6506799,74.8624777
Amritsar,Superior Chick-inn,"Superior Chick-inn, Opposite Gali 3, Ranjeet Vihar, Loharka Road, Ranjit Nagar, Amritsar","North Indian,Beverages",4.5,20,250,31.6339793,74.8722642
Amritsar,Kgf Food Point,"Kgf Food Point, 28 , Diamond Avenue , Majitha Road , Amritsar","Chinese,Snacks",4.5,20,200,31.667949,74.895088
Anand,The Belgian Waffle Co.,"The Belgian Waffle Co., G10 Triveni Arcade,Anand VV Nagar Road,Anand  388315","Desserts,Beverages",4.5,50,200,22.550394,72.9339546
Anand,Vadilal Scoop Shop,"Vadilal Scoop Shop, GF SHOP NO. 10, RAMDEV RESIDENCY, NEAR GANGABA CHHATRALAY, V.V ROAD, KARAMSAD, DIST - ANAND 388001",Ice Cream,4.7,50,300,22.5429215,72.9017603
Anand,Relish World,"Relish World, 89/10, Sanket Tower, Near Grid Crossing, Anand 388001","South Indian,North Indian",4.7,20,200,22.5555487,72.9505728
Anantapur,MUTHYAL REDDY MILK DAIRY,"MUTHYAL REDDY MILK DAIRY, door no : 13-3-379-7, RTC BUS STAND ROAD , ANANTAPURAM , 515001",Sweets,4.6,50,300,14.6836897,77.601598
Anantapur,Grameen Kulfi,"Grameen Kulfi, NIC Natural Ice Cream -Shop No -01, 20-114 Lal band street Anantapur, Andhra Pradesh , 515001","Ice Cream,Desserts",4.5,100,120,14.6745414,77.6006698
Anantapur,BBQ on Wheelz,"BBQ on Wheelz, Azad Nagar, Kalyandurgam Road, Near Razaq Hospital, Anantapur.",Biryani,4.5,50,200,14.6818877,77.6005911
Asansol,Hotel Priyanka International & Restaurant,"Hotel Priyanka International & Restaurant, BURNPUR ROAD, OPP. POLICE LINE, SARAT MANCH, ASANSOL- 713301","Indian,Chinese",4.5,20,300,23.6927413,86.9492386
Asansol,Mama Mia! Italian Ice Creams,"Mama Mia! Italian Ice Creams, S B Ghorai Road, Hill View (North), Opposite- Hill View Nursing Home, (Bye lane, 1st Right Turn, Back side of Petrol Pump), P O- Asansol, Dist- Paschim Burdwan, West Bengal","Ice Cream,Ice Cream Cakes",4.5,100,200,23.6887002,87.1023746
Asansol,MOMO AMRIT,"MOMO AMRIT, KAUSTAV NARAYAN GORAI, 30, G.T. ROAD, BASTIN BAZAR, ASANSOL, ASANSOL MUNICIPAL CORPORATION, PASCHIM BARDHAMAN (West Bengal), - 713301",Chinese,4.5,20,150,23.6872656,86.9702111
Asansol,Baskin Robbins,"Baskin Robbins, NEAR DURGA FOOD RAGHU KASI COMPLEX, G.T ROAD PO- USHAGRAM, ASANSOL MUNICIPAL CORPORATION, RASCHIM BARDHAMAN ( WEST BENGAL ) :- 713303","Desserts,Ice Cream",4.5,100,250,23.7065273,86.9136556
Aurangabad,Mad over Chicken,"Mad over Chicken, First floor, food court, Prozone mall, Chikalthana, Aurangabad","Barbecue,Snacks",4.5,50,200,19.8768733,75.3726757
Aurangabad,Domino's Pizza,"Domino's Pizza, Ground Floor Shop No 1 & 2 Plot no 3 TC/E1, Cidco",Pizzas,4.5,50,400,,
Aurangabad,Sai Panchavati Pav Bhaji and Pulav Center,"Sai Panchavati Pav Bhaji and Pulav Center, Trimurti Chowk, Jawahar Colony, Aurangabad","Indian,Street Food",4.6,20,100,19.8701192,75.3460337
Aurangabad,Natural Ice Cream,"Natural Ice Cream, Ahinsa Bhavan, Near Rajendra Tyre Services, Jalna Road, Akashwani, Aurangabad - 431001",Ice Cream,4.6,100,150,19.8764558,75.3451775
Aurangabad,TIRTH SAI PRASAD PURE VEG RESTAURANT,"TIRTH SAI PRASAD PURE VEG RESTAURANT, AT POST CTS NO 12503 SHOP NO B-101, 104, 106 AND 108 GROUND FLOOR NISHA BAFNA PLAZA OPP AKASHWANI  JALNA ROAD, AURANGABAD","Maharashtrian,North Indian",4.6,20,200,19.8763637,75.3424657
Aurangabad,Apsara Ice Creams,"Apsara Ice Creams, Shop no. 8&9, Motiwala Complex, Akashwani corner, Jalna road, Aurangabad-431001","Ice Cream,Desserts",4.6,100,150,19.8725225,75.375018
Aurangabad,Grameen Kulfi,"Grameen Kulfi, Shop No 1, Akashwani Rd, Bhanudas Nagar, Nyay Nagar, Aurangabad, Maharashtra 431001","Ice Cream,Desserts",4.6,50,120,19.8732171,75.3458156
Aurangabad,Nahush's Temptation,"Nahush's Temptation, Plot No 7, Ulkanagari, Near Omkareshwar Temple, opposite Ramayana Cultural Hall, Aanad Nagar, Shastri Nagar, Sindhi Colony, Aurangabad, Maharashtra 431003, India","Chinese,North Indian",4.5,20,500,19.8665612,75.3422996
Aurangabad,Chitale Xpress,"Chitale Xpress, RAYATE ENTERPRISES, Disha Square, Shop 4 & 5, beside Deogiri Nagri Sahakari Bank, Sutgirni Chowk, Garkheda, Aurangabad, Maharashtra 431009","Sweets,Snacks",4.5,50,300,19.8597213,75.3459688
Bagdogra,Cafe Aarooz,"Cafe Aarooz, Defence Colony,Panighata Road,Upper Bagdogra,West Bengal-734014","Snacks,American",4.6,20,100,26.6986114,88.3116995
Bagdogra,Tasty Mizaj,"Tasty Mizaj , PURBA RANGIA NEW RANGIA, ATHAROKHAI, MATIGARA, DARJEELING,","Indian,Biryani",4.7,20,250,26.7263382,88.3562783
Bahadurgarh,Kwality Walls Frozen Dessert and Ice Cream Shop,"Kwality Walls Frozen Dessert and Ice Cream Shop, VEERJI ICE CREAM: PROFESSOR COLONY, OPP. PUNJABI UNIVERSITY, PATIALA, PUNJAB-147002",Ice Cream,4.6,100,300,30.3497125,76.4609198
Bahadurgarh,Charan Juice & Confectionery,"Charan Juice & Confectionery, A Tank Road, Adalat Bazaar, Patiala, Punjab","Beverages,Juices",4.5,100,200,30.3247556,76.4019738
Bahadurgarh,Baskin Robbins,"Baskin Robbins, Opposite Gurudwara Dukhniwaran Sahib, Charan Bagh, Patiala",Desserts,4.5,50,200,30.346952,76.396075
Balasore,Domino's Pizza,"Domino's Pizza, Ground Floor Extension, RK Plaza,Hospital Road, Vivekananda Marg,BALASORE,Odisha 756001",Pizzas,4.7,50,400,21.4932358,86.9370656
Balurghat,Kwality Walls Frozen Dessert and Ice Cream Shop,"Kwality Walls Frozen Dessert and Ice Cream Shop, SURYA SEN SARANI, P.O.BALURGHAT DAKSHIN DINAJPUR, District - Dakshin Dinajpur , STATE - West Bengal",Ice Cream,4.8,100,300,25.2372834,88.7830612
Baran,Kwality Walls Frozen Dessert and Ice Cream Shop,"Kwality Walls Frozen Dessert and Ice Cream Shop, KM SALES: COLONY HOSPITAL ROAD BARAN, Baran, Rajasthan-325205 (HUL-IA5A315P1030)",Ice Cream,4.6,20,200,25.1012882,76.5119321
Baran,Mr. M G FOOD,"Mr. M G FOOD, BACK SIDE NIGAM OFFICE, JHALAWAR ROAD BARAN","North Indian,Beverages",5,20,200,24.593906,76.1642846
Bardoli,Hotel Vrajbhumi,"Hotel Vrajbhumi, First floor, Panchshil Chambers, Opposite I.D.B.I. Bank, Gandhi Road, Bardoli, Surat, Gujarat.","Punjabi,Chinese",4.5,20,350,21.125903,73.1051252
Bareilly,Kwality Walls Frozen Dessert and Ice Cream Shop,"Kwality Walls Frozen Dessert and Ice Cream Shop, 675/b nai basti bareilly, Ward No- 44, ZONE- 8, Bareilly, Uttar Pradesh - 243001",Ice Cream,4.6,20,300,28.3684363,79.4237432
Bareilly,Ajanta,"Ajanta, ShyamGanj Bareilly, Civil Lines, Bareilly UP 243006","Bakery,Desserts",4.5,100,100,28.3604463,79.4250259
Barnala,Ram Fast Food,"Ram Fast Food, Handaya bazar, ram bagh de back side, gali NO.3, new subhash chakki, Barnala, 148101","Chinese,Snacks",4.9,100,60,30.3819446,75.5467979
Barnala,Bake n cake,"Bake n cake, K.c road, opp Street no.8,Barnala,Punjab - 148101, Barnala 1(Barnala), Barnala, , Punjab, 148101",Bakery,4.7,20,250,30.3687772,75.5409244
Barnala,hot and fresh canadian pizza,"hot and fresh canadian pizza, VRC MALL SHOP NO 123-124 BARNALA 148101","Pizzas,Fast Food",4.9,20,250,30.3731926,75.5236928
Barnala,Food Tree,"Food Tree, SAMMA COMLEX KACHERI CHOWWK BARNALA","American,Italian",4.7,20,150,30.360709,75.5335962
Barnala,CHAMPARAN,"CHAMPARAN, GALLI NO 12 KC ROAD BARNALA,PUNJAB 148101","North Indian,Chinese",4.5,20,150,30.3692023,75.541441
Basirhat,Domino's Pizza,"Domino's Pizza, Sarat biswas Road Bachari para ,PO               PS Basirhat,Dist 24pgs (N),Pin 743411",Pizzas,4.6,20,400,22.6615194,88.8714567
Bathinda,Wrapchik,"Wrapchik, Bathinda, Punjab, India","American,Chinese",4.5,50,150,30.2149725,74.9522856
Beawar,Ashok Fruit & Juice Center,"Ashok Fruit & Juice Center, ""Near Amrit Kaul Hospital, Champa Nagar Road, Beawar, Beawar Locality, Beawar ""","North Indian,Beverages",4.5,100,100,26.1067942,74.3169544
Beawar,Roll Wale,"Roll Wale, NEAR soda shop mission ground","Fast Food,Chinese",4.5,500,200,,
Beawar,Lucky Bakers,"Lucky Bakers, Out Side Ajmeri Gate, near Ramdawara, Paras Colony, Beawar, Rajasthan 305901, India",Indian,4.6,20,100,26.0951592,74.3352858
Belgaum,Bangaluru Fruit Sales & Juice Center - RPD,"Bangaluru Fruit Sales & Juice Center - RPD, Shop No.1, R.P.D Corner, C.D deshmukh Road, Tilakwadi, Belgaum.",Beverages,4.7,20,150,15.8373706,74.5014117
Belgaum,Hotel Adarsha Palace,"Hotel Adarsha Palace, 3360/2B, College Road, Belgaum, Karnataka.","Indian,Chinese",4.5,20,250,15.863834,74.5084014
Belgaum,The Belgian Waffle Co.,"The Belgian Waffle Co., Shop# 3B, Sri Sukhsagar complex, Nehru Nagar, Near VRL Office, Belgaum-590010","Desserts,Beverages",4.5,100,200,15.8786006,74.5162452
Belgaum,NIC Natural Ice Creams,"NIC Natural Ice Creams, Shop No # 10663/E, Shetty Complex, Near Hanuman Hotel, Nehru Nagar, JNMC Road, Belgaum, Karnataka-590010","Ice Cream,Desserts",4.6,100,120,15.8841617,74.5171926
Belgaum,Grameen Kulfi,"Grameen Kulfi, Shop No # 10663/E, Shetty Complex, Near Hanuman Hotel, Nehru Nagar, JNMC Road, Belgaum, Karnataka-590010","Ice Cream,Desserts",4.7,50,120,15.8797211,74.515668
Belgaum,Natural Ice Cream,"Natural Ice Cream, CTS No.10618/B, Nehru Nagar, Belgavi, Karnataka 590010",Ice Cream,4.6,100,150,15.882637,74.5180505
Belgaum,Chai Factory,"Chai Factory, Kirti Complex, Nehru Nagar, Belgaum, Opp. Pai Foods, Belgaum, Karnataka.","Beverages,Snacks",4.6,20,220,15.8785129,74.5170727
Berhampore,The Shake Bottle,"The Shake Bottle, 81 Amar Chakraborty Road Indraprastha , Khagda","Desserts,Beverages",4.5,20,250,,
Bettiah,Kwality Walls Frozen Dessert and Ice Cream Shop,"Kwality Walls Frozen Dessert and Ice Cream Shop, SHARMA COMMUNICATION: SHARMA COMMUNICATION, HAZARIMAL DHARAMSHALA,LAL BAZAR, BETTIAH, PASCHIM CHAMPARAN(BIHAR)-845438",Ice Cream,4.5,100,300,26.8007796,84.5051984
Bharabanki,Kwality Walls Frozen Dessert and Ice Cream Shop,"Kwality Walls Frozen Dessert and Ice Cream Shop, Every thing shoppe Shop no 1 nagar palika market husainganj barabanki 225001","Desserts,Ice Cream",4.5,100,149,,
Bharuch,The Belgian Waffle Co.,"The Belgian Waffle Co., SHOP NO. 2, NAGAR PALIKA SHOPPING, BESIDE DOMINO'S PIZZA, CIVIL HOSPITAL ROAD, BHARUCH, Bharuch, Gujarat-392001","Desserts,Beverages",4.6,20,200,21.7026339,72.9910448
Bharuch,Domino's Pizza,"Domino's Pizza, SHOPNO.3,4&5,MUNICIPALSHOPPINGCENTRE,CIVILHOSPITALROAD,OPPOSITERELAXCINEMA,BHARUCH,392001",Pizzas,4.6,20,400,21.7057681,72.9910479
Bhatkal,Cafe down town,"Cafe down town, cafe down town azad nagar jali main road bhatkal,uttar kannada district 581320","Chinese,Desserts",4.5,20,200,13.9987725,74.53748
Bhavnagar,Rajesh Coldrinks & Ice Cream Pyali,"Rajesh Coldrinks & Ice Cream Pyali, DHAREM SHOPING CENTER SHOP NO 23 BHAGVATI CIRCLE KALIYABID BHAVNAGAR",Beverages,4.5,20,100,21.7363019,72.1389721
Bhilai,Kwality Walls Frozen Dessert and Ice Cream Shop,"Kwality Walls Frozen Dessert and Ice Cream Shop, ""KWALITY ICE CREAM	SHOP NO 46 CIVIC CENTRE BHILAI DIST DURG C.G    	490020""","Desserts,Ice Cream",4.5,100,100,21.1811497,81.3253556
Bhilai,Natural Ice Cream,"Natural Ice Cream, 49 ,commercial complex, nehru nagar east, behind  ICICI Bank, Bhilai, CG, 490020",Desserts,4.5,100,150,21.2069442,81.3293138
Bhiwani,Grover Namkeen,"Grover Namkeen, Hansi Gate circular road opposite Nehru park","Snacks,Street Food",4.5,20,150,,
Bhopal,Chicago Pizza,"Chicago Pizza, Plot no-131, Shop no-05, Narula Complex, zone-2, Maharana Pratap Nagar, Bhopal, Madhya Pradesh, 462023",Pizzas,4.7,20,400,23.2292723,77.4358278
Bhopal,Bake n shake - MP Nagar,"Bake n shake - MP Nagar, Jyoti Cineplex Compound,Mp Nagar,Zone 1,Bhopal  462023","Bakery,Beverages",4.6,20,300,23.2333504,77.4341244
Bhopal,Natural Ice Cream,"Natural Ice Cream, Hansa Complex, 190, Service Road, Zone-I, Maharana Pratap Nagar, Bhopal, Madhya Pradesh- 462011",Ice Cream,4.5,500,150,23.2324523,77.4336273
Bhopal,Rajwadi food corner,"Rajwadi food corner, 413 shivent Anand nagar road  bhopal m p., Bhopal, Bhopal, ,  Madhya Pradesh, 462023","Indian,Chinese",4.7,50,600,23.2599333,77.412615
Bhopal,Second love,"Second love, H no. 23 Naveen nagar piplani  market barkheda bhopal m.p.,  Bhopal, Bhopal, , Madhya Pradesh,  462023","Indian,Chinese",4.7,50,350,23.2436838,77.4730653
Bhopal,Subh food. Services,"Subh food. Services, 576 avadhpuribarkheda pathani bhopal m p., Bhopal, Bhopal, Bhopal, Madhya Pradesh, 462022","Indian,Snacks",4.8,50,500,23.2599333,77.412615
Bhopal,Lassi house,"Lassi house, B765 piplani near awadpuri police  station bhopal m.p., Bhopal,  Bhopal, , Madhya Pradesh, 462022","Fast Food,Snacks",4.6,50,680,23.2436838,77.4730653
Bhopal,Fit Bites Nutrition,"Fit Bites Nutrition, SHOP NO-57/1, BHARAT NAGAR ROAD,  SHAHPURA BHOPAL","Fast Food,Healthy Food",4.6,50,250,23.2015867,77.4328389
Bhopal,Manohar Dairy-New Market,"Manohar Dairy-New Market, New Market,New Market,Bhopal","Sweets,Beverages",4.6,20,200,23.2356553,77.4008194
Bhopal,Top N Town,"Top N Town, Shop No 11, New Market, TT Nagar, Bhopal","Ice Cream,Beverages",4.5,50,150,23.2354043,77.4012043
Bhopal,Top N Town ICE CREAM,"Top N Town ICE CREAM, Block 21, Green City TRILANGA E-8 BHOPA, Bhopal, MP","Ice Cream,Desserts",4.5,50,100,23.1891047,77.4334488
Bhopal,Matka Meal,"Matka Meal, H2/403 Fortune Divine City, Misrod Hoshangabad Road Near Noble Hospital Area: Hoshangabad Road Misrod","North Indian,Thalis",4.7,20,200,22.9932848,77.590668
Bhopal,School Life cafe,"School Life cafe, Shop no.82 Avinash nagar Awadhpuri barkhera bhopal madhya pradesh 462022","Snacks,Fast Food",4.8,50,249,23.2255282,77.4942512
Bhubaneswar,The Belgian Waffle Co.,"The Belgian Waffle Co., Plot No C36, Marker Building, Saheed Nagar, Bhubaneswar Municipal Corporation, Orissa - 751007","Desserts,Beverages",4.6,100,200,20.2867713,85.847717
Bhubaneswar,THE RICE STORY,"THE RICE STORY, Satya Nagar, Bhubaneswar, Odisha 751007, India","Biryani,North Indian",4.5,20,250,20.2829928,85.8465259
Bhubaneswar,Maa Sarala Special Chat,"Maa Sarala Special Chat, ST.JOSEPH'S SCHOOL SQUARE, UNIT-9, BHUBANESWAR, Ram Mandir , Ward 35, BHUBANESWAR MUNICIPAL CORPORATION, Orissa-751001",Chaat,4.7,50,160,20.2799908,85.8435649
Bhubaneswar,Mahalaxmi Special Chat,"Mahalaxmi Special Chat, 7RHV               V99, UNIT- 9, Bhubaneswar, Odisha 751022, India",Chaat,4.5,50,150,20.2799554,85.8435662
Bhubaneswar,Keventers - Milkshakes and Desserts,"Keventers - Milkshakes and Desserts, SHOP NO - FS 205, 3 RD FLOOR, ESPLANDE MALL RASULGARH,BHUBANESWAR,ODISHA - 751010","Beverages,Ice Cream",4.5,100,300,20.2870813,85.872535
Bhubaneswar,Cinnabon & Auntie Anne's,"Cinnabon & Auntie Anne's, Unit No (LG 20), Lower Ground Floor, Esplanade ONE Rasulgarh, Thana New Capital Tahasil Bhubaneswar,Odisha Pin Code 751010",Snacks,4.5,100,450,20.2913503,85.8716515
Bhubaneswar,Aqua By Swosti Grand,"Aqua By Swosti Grand, Plot No-103,Janapath,Unit-03,Bhubaneswar ,751001","North Indian,Biryani",4.5,50,1600,20.2697413,85.841736
Bhubaneswar,Cream Stone Ice Cream,"Cream Stone Ice Cream, J7, Pal Height Ground Floor, Nandankanan Road, Jayadev Vihar, Bhubaneshwar","Ice Cream,Desserts",4.6,50,200,20.2984991,85.8234192
Bhubaneswar,Keno,"Keno, 21, Bapuji Nagar Main St, Bapuji Nagar, Bhubaneswar, Odisha 751009, India","Juices,Snacks",4.8,20,300,20.2577773,85.8348996
Bhubaneswar,Kwality Walls Frozen Dessert and Ice Cream Shop,"Kwality Walls Frozen Dessert and Ice Cream Shop, MAA SANTOSHI ICE CREAM: BADAGADA,NEAR U.P SCHOOL, PODA SAHI, BADAGADA BRIT COLONY, BADAGADA BRIT COLONY(Pt.),WARD 57, BHUBANESWAR, ORISSA-751018","Ice Cream,Desserts",4.6,500,300,20.2477269,85.849914
Bhubaneswar,NIC Natural Ice Creams,"NIC Natural Ice Creams, SHOP NO 03, RATNA PLAZA, LEWIS ROAD, OLD TOWN,BHUBANESHWAR-751002","Ice Cream,Desserts",4.6,500,120,20.2466374,85.8409053
Bhubaneswar,Grameen Kulfi,"Grameen Kulfi, SHOP NO 03, RATNA PLAZA, LEWIS ROAD, OLD TOWN,BHUBANESHWAR-751002","Ice Cream,Desserts",4.7,100,120,20.2466374,85.8409053
Bidar,Arabian Crunch,"Arabian Crunch, Chonde Galli, Old City Fort Area, Bidar, Karnataka 585401, India","American,Snacks",4.5,20,10,17.9137295,77.5248737
Bijapur,Balloon Resto,"Balloon Resto, Servey No 58, Plot No 23, Near Mugalkhod Matha, Solapur Road, Bijapu, Bijapur, Bijapur, Karnataka-586101","North Indian,Chinese",4.7,20,250,16.8638436,75.7203543
Bikaner,Potoo Parathas,"Potoo Parathas, 449, Kanhai, Sector 45, Gurugram, Haryana 122022, India","Indian,Chinese",5,20,150,28.4469229,77.0697572
Bikaner,Theobroma,"Theobroma, Ground Floor, Galleria Market, Opposite Ferns & Petals, DLF Phase 4, Gurgaon","Desserts,Bakery",4.6,500,800,28.4646699,77.0844801
Bikaner,NIC Natural Ice Creams,"NIC Natural Ice Creams, F7 LG Sushant Lok Arcade Gurgaon 122002","Ice Cream,Desserts",4.5,500,120,28.4634412,77.0767557
Bikaner,Biryani Birinj,"Biryani Birinj, B 211, Upper Ground Floor, Super Mart commercial Complex 1, DLf Phase 4, Gurugram 122009","Biryani,Indian",5,20,400,28.4690827,77.0828435
Bikaner,ANNUSAGAR,"ANNUSAGAR, Shop no. 4 & 5 shiv mandir vakil market chakkarpur village road sector 28 Sushant Lok 1 dlf phase 4 ","North Indian,Kebabs",4.7,20,249,28.4726147,77.0895464
Bikaner,Golden Story,"Golden Story, H-26 SUSHANT SHOPPING ARCADE  SUSHANT LOK PHASE-1 , Chakarpur(74),  Gurgaon, Gurugram, Haryana - 122009",North Indian,4.8,20,600,28.4612541,77.0791316
Bikaner,Swear By Biryani,"Swear By Biryani, 679, Saraswati kunj, Sector-53, Golf Course Road, Gurgaon, Gurugram, Haryana, 122002","Biryani,Kebabs",4.5,100,600,28.4554894,77.0910701
Bikaner,Sweet Truth - Cake and Desserts,"Sweet Truth - Cake and Desserts, Shop no. E220 Sushant Arcade, Sushant lok, Gurgaon-122001","Bakery,Desserts",4.5,50,450,28.4702971,77.0750414
Bikaner,My Tea Chapel- Pinsa pizza waffles,"My Tea Chapel- Pinsa pizza waffles, GF-082, Ground Floor, Next to post office, Galleria Condominium, DLF phase 4, sector 28, Gurugram- 122002","Pizzas,Beverages",4.6,50,700,28.4665673,77.0827948
Bikaner,"Got Tea | 32nd Ave, Gurgaon","Got Tea | 32nd Ave, Gurgaon, Unit No. H-GF1, Ground Floor, NH-8, NH 48, Sector 15 Part 2, Sector 15, Gurugram, Haryana 122001, India","Beverages,Fast Food",4.7,100,520,28.4620225,77.0502318
Bikaner,BIRYANINAMA,"BIRYANINAMA, UGF 56,vyapar kendra market, Sushant Lok Phase I, Sector 43, Gurugram, Haryana 122022, India","Biryani,Snacks",4.6,20,300,28.4599327,77.0834098
Bikaner,Wangshi's,"Wangshi's, B-110, Supermart 1, DLF Phase 4, Gurgaon","Chinese,Asian",4.5,50,400,28.4690827,77.0828435
Bikaner,Natural Ice Cream,"Natural Ice Cream, SHOP NO. SG-104, GROUND FLOOR, GALLERIA MARKET, PHASE 4,Gurgaon",Ice Cream,4.6,100,150,28.46716,77.0818086
Bikaner,Slay Coffee,"Slay Coffee, SCO no 11 & 12 Second Floor above Reliance Fresh, Huda Market, LIG Colony, Near Om Sweets Sector 31, Gurugram, Haryana 122001","Beverages,Desserts",4.5,100,200,28.450871,77.052454
Bikaner,Gopala,"Gopala, Shop No-117, GF, Central Arcade DLF Qutab Enclave Complex, Phase-II, Gurugram","Sweets,Desserts",4.5,20,200,28.5056634,77.0888228
Bikaner,PEHLE CHAI,"PEHLE CHAI, Shop No. 1, 2 & 3,Ground Floor,Santosh Plaza,Plot No.728(BE),Sushant Lok,Phase-122001","Street Food,Snacks",4.5,50,200,28.4634412,77.0767557
Bikaner,Grameen Kulfi,"Grameen Kulfi, F7 LG Sushant Lok Arcade Gurgaon 122002","Ice Cream,Desserts",4.6,100,120,28.455363,77.0783275
Bikaner,De Cakery,"De Cakery, South Point Mall, shop no 201 De Cakery Second Floor ","Bakery,Desserts",4.6,50,600,28.4482162,77.0989911
Bikaner,Yum Yum Cha,"Yum Yum Cha, 90, Udyog Vihar, Phase 4, Gurugram","Japanese,Sushi",4.6,50,1800,28.495398,77.081213
Bikaner,Grotto,"Grotto, SF - 090, DLF Galleria Market , DLF Phase IV, Sector 28, Gurugram, Haryana 122009, India","Pizzas,Beverages",4.7,50,499,28.46716,77.0818086
Bikaner,Chinese Byte,"Chinese Byte, Kiosk-3,Dist Shopping center,Sector-56, Gurgaon, Gurugram, Haryana-122011 Landmark-Metro World mall","Chinese,Fast Food",4.5,100,300,28.4288249,77.1001879
Bikaner,C.I.A Call It Asiian,"C.I.A Call It Asiian, Shop G-38 & 39, Block C, Baani Square, Sector 50,  Gurugram, Haryana-122018","Chinese,Thai",4.7,50,800,28.4253812,77.0577125
Bikaner,DND - Daily Nutritional Diet,"DND - Daily Nutritional Diet, Shop No, C-18, LG in Sushant Arcade, Sushant Lok Phase 1, Gurugram ,Haryana-122009","Healthy Food,Salads",4.5,100,300,28.4702971,77.0750414
Bikaner,ASAGAO BY YUHI,"ASAGAO BY YUHI, Yuhi Hospitality Services - Speciality Japanese Corporate House, Block B, Greenwood City, Sector 45, Gurugram, Haryana, India","Japanese,Sushi",4.7,20,800,28.4440431,77.0600005
Bikaner,Smoodies,"Smoodies, KitchenPlus - 651, Udyog Vihar Phase V, Udyog Vihar 3, Phase V, Udyog Vihar, Sector 19, Gurugram, Haryana 122001","Beverages,Snacks",4.5,20,140,28.5017266,77.0832629
Bikaner,Cafe Sain,"Cafe Sain, SHOP NO. 21, B BLOCK, AARDEE CITY, SECTOR-52,GURGAON , Gurgaon, Gurugram, Haryana, 122011","Chinese,Continental",4.6,50,200,28.4397714,77.0780614
Bikaner,Keventers Ice Cream,"Keventers Ice Cream, SG101,GALLERIA TOWER,GALLERIA MARKET,DLF PHASE 4,GURGAON","Ice Cream,Desserts",4.5,20,300,28.4671659,77.0814039
Bikaner,HRX by Eatfit,"HRX by Eatfit, PLOT NO. 3807, GROUND FLOOR, DLF PHASE 4,ADJACENT IVY APARTMENTS GURUGRAM, Gurgaon, Gurugram, Haryana-122001","Healthy Food,Salads",5,20,270,28.4647798,77.0816268
Bikaner,Silom,"Silom,  1125 lotus villa opposite hamilton court DLF phase 4 Gurgaon Haryana 122002","Pan-Asian,Thai",4.8,20,800,28.4682058,77.0856079
Bikaner,Absolut Pasta - By Chef John,"Absolut Pasta - By Chef John, SHOP NO 2,second floor,cross road complex,nr 27,dlf phase 3,sector 24,Gurgaon,122002","Healthy Food,Pastas",4.5,20,250,28.4873877,77.1043334
Bikaner,Ah So Yum,"Ah So Yum, Plot No. 679, Saraswati Kunj,Sector 53, Golf Course Road, GURUGRAM 122002","Chinese,Pan-Asian",4.5,100,800,28.4416025,77.0945711
Bikaner,KOLKATA SWEETS,"KOLKATA SWEETS, KHATU	SHYAM	MANDIR ROAD	DHANI SECTOR 52 GURGAON HARYANA 122001",Indian,4.5,100,250,28.4405195,77.0901975
Bikaner,Kings Kulfi,"Kings Kulfi, Shop No. K 11, DLF Cyber Hub, Gurugram","Ice Cream,Desserts",4.5,20,100,28.495675,77.0887161
Bikaner,Royal Amritsar,"Royal Amritsar, Shop No.218, Sector 31, Huda Market,\\\\nHaiderpur(76), Gurgaon, Gurugram,\\\\nHaryana 122001","North Indian,Biryani",4.6,20,300,28.4530954,77.050937
Bikaner,Flavours of Champaran,"Flavours of Champaran, B 211  Upper Ground Floor  Super Mart commercial Complex 1  DLf Phase 4  Gurugram 122009","North Indian,Bihari",5,20,200,28.4690827,77.0828435
Bikaner,THE WOK STORY,"THE WOK STORY, S 36  Second Floor  Baani Square  Sector 50  Gurugram",Chinese,4.5,20,300,28.4255734,77.0573275
Bikaner,Curry House CoCo Ichibanya,"Curry House CoCo Ichibanya, Unit 112, First Floor, DLF Cyber City, Gurgaon",Asian,4.9,50,800,28.4949762,77.0895421
Bikaner,Nam's Kitchen,"Nam's Kitchen, Khasra No. 505 & 506, Next to Supermart-2, DLF Phase-IV, Gurgaon-122009","North Indian,Awadhi",4.9,20,399,28.4623003,77.0875224
Bikaner,It's Sundae - Crave For More,"It's Sundae - Crave For More, SHOP NO 2,second floor,cross road complex,nr 27,dlf phase 3,sector 24,Gurgaon,122002","Desserts,Ice Cream",4.6,20,180,28.4873877,77.1043334
Bikaner,Cinnabon,"Cinnabon, DLF Cyber City gate no .2 Phase 2 sector -24 Gurugram haryana -122002",Bakery,4.5,50,500,28.44529,77.065081
Bikaner,Caffe Tonino,"Caffe Tonino, 1St Floor, One Horizon Center, Golf Course Road",Italian,4.6,20,1400,28.4516928,77.0983503
Bikaner,Spice Market - Premium Kebab Experience,"Spice Market - Premium Kebab Experience, Kitchen No. 8, Kitchen Plus Phase- V, Sector-19, Gurugram, Haryana-122001","Indian,Mughlai",4.9,20,600,28.5017266,77.0832629
Bikaner,Noshi - Yum Asian Delivery,"Noshi - Yum Asian Delivery, 90, Udhyog Vihar, Phase 4, Gurugram","Asian,Japanese",4.5,50,1000,28.495398,77.081213
Bikaner,Moshio,"Moshio, SHOP NO. 02 SITUATED AT PLOT NO. 3807, 2nd FLOOR, DLF Phase-4, Adjacent to the Ivy Apartment, Near Galleria Market, Gurgaon, Gurugram, Haryana-122001","Asian,Chinese",5,20,700,28.4646699,77.0844801
Bikaner,Nomad Pizza- Traveller Series,"Nomad Pizza- Traveller Series, Ground Floor, Shop No., Kasra No. 505-506, Village - Chakkarpur,, Gurgaon, Gurugram, Haryana-122022",Indian,4.7,50,850,28.4615184,77.088823
Bikaner,House of Wok,"House of Wok, Shop No. LGF 01, 29 & 30, Block G, Sushant Shopping Arcade, Sushant Lok 1, Gurugram - 122001, Haryana","Chinese,Thai",4.6,50,1000,28.4604298,77.0791602
Bikaner,Another Fine Day,"Another Fine Day, Ground Floor, MPD Tower, Opposite Magnolias, DLF 5, Golf Course Road, Gurgaon","Continental,Healthy Food",4.7,100,500,28.4546834,77.0971863
Bikaner,Choko la,"Choko la, SG 100, Front Lane, Galleria Market, DLF Phase 4, Gurgaon","Bakery,Cafe",4.5,20,300,28.4675497,77.0816027
Bikaner,Camino Pizzeria,"Camino Pizzeria, Hall 6, 2nd floor Vijay complex, Vakil market gurgaon 122002","Pizzas,Italian",4.5,20,300,28.473524,77.0805201
Bikaner,The Mummy's Parantha And Chinese Cuisines,"The Mummy's Parantha And Chinese Cuisines, 1839, Sarswati Kunj II, Wazirabad, Sector 52, Gurugram, Haryana 122001, India","Indian,Thalis",4.5,100,200,28.4370449,77.083787
Bikaner,Chef Kenzo,"Chef Kenzo, D - 121, Ground Floor, Sushant Arcade, Sushant Lok - I,, Gurgaon, Gurugram, Haryana-122001","Continental,Mexican",4.7,20,700,28.4606779,77.0786577
Bikaner,The Republic of Biryani TROB,"The Republic of Biryani TROB, UGF-56 |, Vyapar Kendra Rd, Block C, Sushant Lok Phase I, Sector 43, Gurugram, Haryana 122022, India","Biryani,Kebabs",4.9,20,500,28.4531709,77.0825809
Bikaner,Lite Bite & Biryani,"Lite Bite & Biryani, No-317, Udyog vihar, Phase-4, Gurgaon, Haryana-122015","Indian,Biryani",4.5,20,300,28.5002994,77.0810686
Bikaner,"Oki Poki - Sushi, Dimsums & More","Oki Poki - Sushi, Dimsums & More, DLF Cyber Hub, Shop number 102, 1st floor,Basement Street Number 1, DLF Cyber City Rd, Sector 24, Gurugram, Haryana 122002","Japanese,Sushi",5,20,900,28.4964301,77.096291
Bikaner,Cantonese Aroma,"Cantonese Aroma, Shop no. 102, Baani Square, Sector 50, Gurgaon","Asian,Beverages",4.6,50,850,28.4254804,77.0571964
Bikaner,Fries Please Cafe - Crispiest Fries Delivered,"Fries Please Cafe - Crispiest Fries Delivered, SHOP NO 2,second floor,cross road complex,nr 27,dlf phase 3,sector 24,Gurgaon,122002","Fast Food,American",4.5,20,220,28.4873877,77.1043334
Bikaner,THE CAKE ELEVEN,"THE CAKE ELEVEN, Yadav Chopal Chakkarpur, Near Sahara Mall, Sector-28 DLF Phase 4","Bakery,Desserts",4.5,20,500,28.46716,77.0818086
Bikaner,Call Chotu - Your Everyday Food Genie,"Call Chotu - Your Everyday Food Genie, Kitchen No. 8, Kitchen Plus Phase- V, Sector-19, Gurugram, Haryana-122001","North Indian,American",4.5,50,300,28.5017266,77.0832629
Bikaner,Call Chotu - Meal in a Bowl,"Call Chotu - Meal in a Bowl, Kitchen No. 8, Kitchen Plus Phase- V, Sector-19, Gurugram, Haryana-122001","North Indian,Biryani",4.6,50,300,28.5017266,77.0832629
Bikaner,Dribble,"Dribble , ""A26/4, A BLOCK, MARUTI HOUSING COLONY, SECTOR 28, DLF PHASE 1, GURUGRAM, HARYANA 122002 ""","Continental,Beverages",4.6,20,400,28.4797988,77.0799532
Bikaner,The Artful Baker,"The Artful Baker, 317, Udyog Vihar, Sector 18, Gurgaon,122015","Desserts,Bakery",4.5,20,500,28.4984141,77.0849249
Bikaner,EMOI- ARTISANAL ICE CREAMS & GELATO,"EMOI- ARTISANAL ICE CREAMS & GELATO, Shop 02, Ground Floor, 786 Complex, Near House 1126, DLF Phase 4, Gurgaon","Ice Cream,Desserts",4.5,20,200,28.4646699,77.0844801
Bikaner,Affordable Burgers,"Affordable Burgers, 242, Chakkarpur, Sector 28, Gurugram, Haryana 122002, India",Snacks,4.6,20,100,28.469063,77.089534
Bikaner,AKU'S - The Brrgrr Co,"AKU'S - The Brrgrr Co, Ground Floor, K-7, Building-10, Phase-III, Cyber Hub, Gurgaon, Haryana, Gurgaon, Gurgaon(Haryana) -122010","Beverages,American",4.6,20,600,28.4903029,77.0955628
Bikaner,1900 Ad - A Kitchen Love Story,"1900 Ad - A Kitchen Love Story, 8 Ashoka complex  Samaspur Sector 51  122001","North Indian,Biryani",4.5,20,400,28.425078,77.067262
Bikaner,Masala Synergy,"Masala Synergy, Shop No. 211, 2nd Floor, DLF Mega Mall, DLF Phase-1, Gurgaon, Gurugram, Haryana-122002","North Indian,Mughlai",4.9,50,700,28.4756738,77.0930336
Bikaner,Shake O Burger,"Shake O Burger, S-36, Baani Square, Sector 50 gurgaon, Gurgaon, Gurgaon (Haryana), - 122018","Beverages,Fast Food",4.6,20,200,28.4257225,77.0577849
Bikaner,Yours Truly Butter Chicken,"Yours Truly Butter Chicken, Kitchen No. 8, Kitchen Plus Phase- V, Sector-19, Gurugram, Haryana-122001","North Indian,Kebabs",4.7,50,600,28.5017266,77.0832629
Bikaner,LA TANDOORI,"LA TANDOORI, G-62, Ground Floor, Baani Square, Sector 50, Gurugram","North Indian,Chinese",4.5,20,300,28.4257225,77.0577849
Bikaner,Eighty-Twenty,"Eighty-Twenty, M-1/6, Basement, DLF Phase 2, Gurgoan122002","American,Fast Food",4.9,20,450,28.4891318,77.0827405
Bikaner,Dragon Singh,"Dragon Singh, SHOP NO.A-224, UPPER GROUND FLOOR, SUPER MART-I, DLF PHASE 4, GURUGRAM-122002","North Indian,Snacks",4.7,20,500,28.4626255,77.0871409
Bikaner,THALI CORNER,"THALI CORNER, SHOP NO-113, HUDA MARKET, SECTOR-32,  GURGAON HARYANA-122001,  hakarpur(74), Gurgaon, Gurugram,  Haryana - 12200","North Indian,Chinese",4.5,20,250,28.4456724,77.0449284
Bikaner,Vaishno Dhaba,"Vaishno Dhaba, C/o Babita Devi House No. 258 Sarhoul Awadi Village ,Sarhol(70),Gurgaon,Gurugram,Haryana-122015","Indian,Thalis",5,20,200,28.487598,77.0698738
Bikaner,Punjabi Rasoi,"Punjabi Rasoi, ""SHOP NO-5, RAJ SINGH COMPLEX OPPOSITE HOUSE NO-3207, DLF PHASE-IV, GURGAON	 122009""","North Indian,Chinese",4.8,20,400,28.4725629,77.0818129
Bikaner,Nayi Dilli ke Paranthe,"Nayi Dilli ke Paranthe, Kitchen No. 8, Kitchen Plus Phase- V, Sector-19, Gurugram, Haryana-122001","Indian,North Indian",4.7,50,300,28.5017266,77.0832629
Bikaner,Asia Kitchen by Mainland China,"Asia Kitchen by Mainland China, Shop No. 4 & 5, Khasara 763, Village Chakkarpur, Next To Plot No. 1125, DLF Phase -4, Opp. Hamilton Courts Appt Gurugram-122009","Chinese,Asian",4.8,20,1000,28.4679671,77.0770055
Bikaner,Diwans Curry,"Diwans Curry, Jal Vihar, Jal Vihar Colony, Sector 46, Gurugram, Haryana 122003","North Indian,Indian",4.6,20,300,28.4369853,77.0551871
Bikaner,Posa - All Things Indian,"Posa - All Things Indian, P??? - All Things Indian, Sector 15 Part 2, Sector 15, Gurugram, Haryana, India","North Indian,Tandoor",4.6,20,800,28.4619592,77.0502544
Bikaner,Khadak Singh Da Dhaba,"Khadak Singh Da Dhaba, G-18, Ground Floor , Central Plaza Mall, Golf Course Road, Sector-53, Gurugram, Haryana-122009","North Indian,Mughlai",4.8,20,300,28.4432722,77.1007851
Bikaner,Fittin,"Fittin, A-8-10, JP MARKET COMPLEX, VILLAGESAMASPUR , Shamshpur(92) , Gurgaon, Gurugram, Haryana-122018","Indian,North Indian",5,20,300,28.4240185,77.068431
Bikaner,Pikopiko,"Pikopiko, 23-24, Samaspur Village, Sector 51, Gurugram, Haryana 122001, India","Continental,Healthy Food",4.7,20,450,28.4256956,77.0674201
Bikaner,Copper Chimney,"Copper Chimney, 11, DLF Cyber City, DLF Phase 2, Sector 25, Gurugram, Haryana 122022","North Indian,Indian",4.9,20,800,28.4956782,77.0887076
Bikaner,Grubs 'N' Munchies,"Grubs 'N' Munchies, Kitchen no 7, 1st floor 1126, Lotus Villas Opp. Hamilton Court DLF phase 4 Gurugram - 122002.","North Indian,Chinese",4.8,20,300,28.4682058,77.0856079
Bikaner,Cafe 96,"Cafe 96, Shop NO 02 GF at 786 complex next to H.No 1126 DLF Phase- IV, Naharpur Rupa (Part)(96), Gurgaon, Gurgaon, Haryana-122009","Chinese,Thai",4.8,20,300,28.4698717,77.0857889
Bikaner,Only Bowl,"Only Bowl, Shop NO 02 GF at 786 complex next to H.No 1126 DLF Phase- IV, Naharpur Rupa (Part)(96), Gurgaon, Gurgaon, Haryana-122009","North Indian,Chinese",4.8,20,300,28.4698717,77.0857889
Bikaner,Tai Chi Bowl,"Tai Chi Bowl, Shop NO 02 GF at 786 complex next to H.No 1126 DLF Phase- IV, Naharpur Rupa (Part)(96), Gurgaon, Gurgaon, Haryana-122009","Chinese,Thai",4.5,20,300,28.4698717,77.0857889
Bikaner,The Greedy Man Pizzeria,"The Greedy Man Pizzeria, Shop No.12, GF Essel Tower Shopping Complex, Sarhol(70), Gurgaon, Gurugram, Haryana - 122009","Pizzas,Desserts",4.9,20,500,28.4764423,77.0750863
Bikaner,Al-Rasheed,"Al-Rasheed, Kharsa no 505-506, vill chakarpur,super mart 2, Sec 43, gurgaon",Mughlai,4.6,50,600,28.4619179,77.088779
Bikaner,ITC Fabelle Chocolates,"ITC Fabelle Chocolates, SCO 10&11, 2nd Floor, Above Reliance Fresh, Near OM Sweets, Huda Market, Sector 31, Gurgaon","Bakery,Desserts",4.8,20,600,28.4528128,77.0500666
Bikaner,SHEIKH CHANG SINGH,"SHEIKH CHANG SINGH, Shop no. 7 La lagune Apartments Golf course road Sector 54 Gurgaon","Chinese,Indian",4.5,50,200,28.4371007,77.1044314
Bikaner,Jujube Asian Cookhouse,"Jujube Asian Cookhouse, Shop NO. 24A , 25A, JP, Market Samaspur, Sector 51 Gurugram, Gurgaon, Gurugram, Haryana, 122003","Pan-Asian,Chinese",4.6,50,450,28.4249601,77.0681558
Bikaner,B Chom Ping,"B Chom Ping, Kitchen no 7, 1st floor 1126, Lotus Villas Opp. Hamilton Court DLF phase 4 Gurugram - 122002.","Chinese,Snacks",5,20,450,28.4682058,77.0856079
Bilaspur,The Belgian Waffle Co.,"The Belgian Waffle Co., 2nd Floor, Food Court, Rama Magneto Mall, Bilaspur (C.G) Pin-495001","Desserts,Beverages",4.8,20,200,22.0719391,82.1498614
Bilaspur,Natural Ice Cream,"Natural Ice Cream, Shop no 31 Ground floor Rama Magneto mall, Bilaspur, Behla, Chhattisgarh - 495001",Ice Cream,4.6,100,150,22.0716759,82.1498944
Bokaro,Baskin Robbins,"Baskin Robbins, LG 40, LUBY CIRCULAR ROAD, CITY CENTRE, DHANBAD",Ice Cream,4.6,50,200,23.8055236,86.4307947
Bokaro,Spice Affair Kitchen,"Spice Affair Kitchen, Nalanda Trade Center, 3RD Floor, Main Road Saraidhela, Dhanbad - 828127 (Near Big Bazar)","Indian,Chinese",4.5,20,200,23.8197677,86.4683139
Bokaro,The Belgian Waffle Co.,"The Belgian Waffle Co., C-8, Food Factory, 4th floor, The Ozone Galleria Mall, NH 32, Sugiadih, Sahayogi Nagar Sector II, Dhanbad, Jharkhand 828127","Desserts,Beverages",4.6,50,200,23.8208682,86.4694207
Bulandshahr,Domino's Pizza,"Domino's Pizza, Ground Floor, Plot No.4/C-13,Avas Vikas Colony 1, D.M Colony Road,Baran Bulandshahr 203001, Uttar Pradesh.",Pizzas,4.6,20,400,28.4182899,77.8505966
Bulandshahr,Ruling Rolls Urja Kitchen,"Ruling Rolls Urja Kitchen, SWASTIK LODGE,DM ROAD,BULANDSHAHR",Snacks,4.7,20,200,28.41846,77.843637
Bundi,Nakoda Fresh Corner,"Nakoda Fresh Corner, KHOJA GATE ROAD BUNDI , Bundi, Bundi (Rajasthan) - 323001",Italian,4.5,20,120,25.4363042,75.6376632
Burhanpur,Kwality Walls Frozen Dessert and Ice Cream Shop,"Kwality Walls Frozen Dessert and Ice Cream Shop, KUNDAN CORNER: CHOWK BAZAR, BURHANPUR, MADHYA PRADESH-450331",Ice Cream,4.5,20,300,21.3083122,76.231973
Chhindwara,The Belgian Waffle Co.,"The Belgian Waffle Co., Satkar Compound, Satkar Square, Parasia Rd, Chhindwara, Madhya Pradesh 480001","Desserts,Beverages",4.6,20,200,22.0619595,78.9196397
Chidambaram,IBACO,"IBACO, 126,S.P Kovil Street,Chidambaram","Bakery,Desserts",4.5,20,200,11.3952953,79.6941274
Chikhli,HOTEL NEW HARDEO FAMILY RESTAURANT,"HOTEL NEW HARDEO FAMILY RESTAURANT, MEHEKAR PHATA, GUT NOS 138, BHANKED TQ- CHIKHALI","Indian,Maharashtrian",4.6,20,200,18.6824723,73.8196095
Chittorgarh,Jain Food Court,"Jain Food Court, A 29 NEAR RAILWAY CROSSING KUMBHA NAGAR","Jain,North Indian",4.6,20,200,24.8841079,74.6203844
Chopda,Priya Foods Products,"Priya Foods Products, 3154 MAIN ROAD BAZAR PETH CHOPDA","Bakery,Snacks",4.8,20,200,21.2472081,75.3031435
Chopda,Sai Prasadamm Restaurant,"Sai Prasadamm Restaurant, MH SH 14, Chopda, Maharashtra 425107","North Indian,Chinese",4.7,20,300,21.2242701,75.2805895
Chopda,Sairam Hotel,"Sairam Hotel, BAZAR PETH MAIN ROAD CHOPDA","Chinese,Maharashtrian",4.8,20,200,21.247118,75.296537
Chopda,Pankaj Chaulafalli,"Pankaj Chaulafalli , S/0 AT POST THALANER DARWAJA CHOPDA","North Indian,Chinese",5,20,99,21.2494139,75.293797
"Peelamedu,Coimbatore",DOWNTOWN BISTRO,"DOWNTOWN BISTRO, DOOR NO-4,6TH STREET,LAKSHMIPURAM,PEELAMEDU(PO),COIMBATORE","Fast Food,Beverages",4.5,20,400,11.0234579,77.0205801
"Peelamedu,Coimbatore",NIC Natural Ice Creams,"NIC Natural Ice Creams, ShopNo G8,Ram Plaza-18,LalBhatur Colony,Avarampalyam Rd,Peelamedu,Coimbatore,Tamil Nadu","Ice Cream,Desserts",4.6,500,120,11.0284126,76.9956714
"Peelamedu,Coimbatore",GoParatha,"GoParatha, GoParatha, 1st Floor, Above RV Bakery, Near Venu Biryani, Lakshmi Mills Bus-stop, Coimbatore 641037",North Indian,4.6,500,200,11.0017287,77.2222701
"Peelamedu,Coimbatore",Grameen Kulfi,"Grameen Kulfi, Nic Natural Ice Creams, Shop No G8, Ram Plaza-18, LalBhatur Colony, Avarampalyam Rd, Peelamedu, Coimbatore, Tamil Nadu-641004","Ice Cream,Desserts",4.6,50,120,11.0284126,76.9956714
"Hopes,Coimbatore",Kouzina Kafe - The Food Court,"Kouzina Kafe - The Food Court, Door No 116, Thaneerpandhal Road, Vilankurichi, Coimbatore, Coimbatore Corporation Ward-26, Coimbatore, Tamil Nadu, 641004","Bakery,Desserts",4.6,50,200,11.035996,77.0156436
"Hopes,Coimbatore",Polar bear,"Polar bear, NO: 777/44 A, DOOR NO :11/1,GROUND FLOOR,NEHRU NAGAR EAST,KALAPATTI, Coimbatore Corporation Ward-35, Coimbatore, Tamil Nadu-641048",Ice Cream,4.5,50,300,11.0535618,77.0389223
"Hopes,Coimbatore",Sri Krishna Sweets,"Sri Krishna Sweets, Shop No.54, Avinashi Road, peelamedu, Coimbatore  641004",Sweets,4.6,50,200,11.0263355,77.0207224
"Hopes,Coimbatore",Kwality Walls Frozen Dessert and Ice Cream Shop,"Kwality Walls Frozen Dessert and Ice Cream Shop, kwalitt walls(sri mahalakshmi bakery) Varatharajapuram medu,Neelikonampalayam Coimbatore-641015",Ice Cream,4.5,100,300,11.010582,77.03722
"Hopes,Coimbatore",Sree Annapoorna Sweets & Savouries,"Sree Annapoorna Sweets & Savouries, Opposite KMCH, Hope College, Peelamedu, Coimbatore","Sweets,Desserts",4.6,100,200,11.0261349,77.0201897
"Hopes,Coimbatore",Momolings,"Momolings, DOOR#39,NEHRU NAGAR 5TH STREET AIRPORT(PO), Coimbatore Corporation Ward-7, Coimbatore, , Tamil Nadu, 641014","Chinese,Snacks",4.6,20,200,10.9913818,76.9956521
"Race Course,Coimbatore",The South Indian Coffee House,"The South Indian Coffee House, 63&64,balasundaram road,coimbatore",South Indian,4.6,20,200,11.008387,76.9752987
"Race Course,Coimbatore",Sree Annapoorna Sweets & Savouries,"Sree Annapoorna Sweets & Savouries, 2, Peoples Park, Arts College Road, Opposite Court, Race Course, Coimbatore","Sweets,Desserts",4.6,50,200,10.9983273,76.9713197
"Race Course,Coimbatore",Fruit Shop on Greams Road,"Fruit Shop on Greams Road, 127 Thirugnanasambandam Road Racecourse Road Coimbatore","Beverages,Desserts",4.5,100,250,11.0040144,76.9758629
"Race Course,Coimbatore",Shree Anandhaas,"Shree Anandhaas, 747, Lakshmi Mills Junction, Puliyakulam Road, Lakshmi Mills, Coimbatore","South Indian,North Indian",4.6,1000,200,11.0074343,76.9910971
"Race Course,Coimbatore",Richy Rich,"Richy Rich, 51, Near Jayams Hall, Race Course, Coimbatore","Desserts,Beverages",4.5,100,250,10.9991378,76.9772675
"Race Course,Coimbatore",Velan Kaappi,"Velan Kaappi, Race Course Road, Race Course, Coimbatore",Beverages,4.6,100,100,11.0002735,76.9733518
"Race Course,Coimbatore",Shree Anandhaas Sweets & Snacks,"Shree Anandhaas Sweets & Snacks, 747, Puliakulam Road, Lakshmi Mills Junction, Coimbatore, Tamil Nadu 641037, India","Sweets,Desserts",4.6,100,200,11.0106108,76.9875727
"Sai Baba Colony,Coimbatore",Sree Annapoorna Sweets & Savouries,"Sree Annapoorna Sweets & Savouries, Sri Vali Complex, 174/F, NSR Rd, Saibaba Colony, Tamil Nadu 641011",Desserts,4.6,100,200,11.0255714,76.9424439
"Sai Baba Colony,Coimbatore",Polar Bear,"Polar Bear, NO 1A, BHARATHI CROSS ROAD NO 7 SAIBABA COLONY, COIMBATORE, Coimbatore, Tamil Nadu, 641011",Ice Cream,4.5,100,350,11.0198735,76.9425983
"Sai Baba Colony,Coimbatore",Sri Krishna Sweets,"Sri Krishna Sweets, 169-F, NSR road, Saibaba colony, Coimbatore - 641011",Sweets,4.6,50,200,11.0263986,76.9447362
"Sai Baba Colony,Coimbatore",Velan Kaappi,"Velan Kaappi, NSR Road Saibaba Colony, Coimbatore",Beverages,4.6,100,100,11.0269481,76.9460945
"Gandhipuram,Coimbatore",PVR Cafe,"PVR Cafe, 4th Floor, Brookefields Mall, Krishnaswamy Road, Coimbatore, Tamil Nadu 641001, India","Snacks,Fast Food",4.5,100,200,11.0084288,76.9596027
"Gandhipuram,Coimbatore",Sree Annapoorna Sweets & Savouries,"Sree Annapoorna Sweets & Savouries, sri lakshmi complex branch,73 cross cut road,gandhipuram",Desserts,4.5,50,200,11.0160015,76.9652962
"Gandhipuram,Coimbatore",Sri Aarvee Hotels,"Sri Aarvee Hotels, 311 A  Bharathiyar Road  New Sidhapudur  Oposite to City Bus Stand  Gandhipuram  Coimbatore",North Indian,4.5,20,250,11.0164908,76.970592
"Gandhipuram,Coimbatore",Cakes by Chocolates,"Cakes by Chocolates, 797, TANNY'S B ENCLAVE, VKK Menon Rd, Siddhapudur, New Siddhapudur, Coimbatore, Tamil Nadu 641044","Beverages,Desserts",4.5,100,250,11.0202107,76.9775463
"Gandhipuram,Coimbatore",Shree Anandhaas Sweets & Snacks,"Shree Anandhaas Sweets & Snacks, 67, Malaviya St, Ram Nagar, Coimbatore, Tamil Nadu 641009, India","Sweets,Desserts",4.6,50,200,11.01217,76.965891
"Gandhipuram,Coimbatore",Sri Krishna Sweets,"Sri Krishna Sweets, 100 FT ROAD BRANCH,383A, 100 FEET ROAD,TATAPAD 7TH CROSS, GANDHIPURAM,COIMBATORE - 641012",Sweets,4.6,50,200,11.019559,76.9627428
"Gandhipuram,Coimbatore",Shero Home Food - Chettinad,"Shero Home Food - Chettinad, No.77 1st floor, Sidha naidu lane, Palaiyur, Pappanaickenpalayam, Coimbatore - 641037","South Indian,Chettinad",4.5,20,350,11.0170946,76.9852586
"Gandhipuram,Coimbatore",Sri Krishna Iyer Mess,"Sri Krishna Iyer Mess, No 106, Sarojini Street, Ram Nagar, Coimbatore",South Indian,4.6,500,150,11.0114443,76.9617277
"Saravanampatti,Coimbatore",Sri Krishna Sweets,"Sri Krishna Sweets, Shop No.1 & 2, Sakthi Road, Saravanampatti, Coimbatore 641035",Sweets,4.5,20,200,11.0169318,76.9662888
"Saravanampatti,Coimbatore",Despacito Cafe,"Despacito Cafe, NO.7/133-1C,SMK COMPLEX,NEW KEERANATHAM ROAD,SARAVANAMPATTI PO ,,Sarkarsamakulam block,Coimbatore,Tamil Nadu-641035","Beverages,Juices",4.7,50,150,11.0951099,76.9967603
"Saravanampatti,Coimbatore",A1 Chips & Snacks,"A1 Chips & Snacks, Thudiyalur Road , Saravanampatti","Snacks,Sweets",4.6,100,200,11.0810133,76.9923365
"Saravanampatti,Coimbatore",Sri Annapoornis Sweets,"Sri Annapoornis Sweets, 137D,SATHY ROAD,SARAVANAMPATTI,COIMBATORE-641035",Sweets,4.7,20,200,11.0740475,77.0017753
"Saravanampatti,Coimbatore",Momolings,"Momolings, Villa 38, Sriram Sai shreyas Villas, P&T Nagar, Saravanampatty, Coimbatore- 641035","North Indian,Chinese",4.5,20,200,11.0807131,76.9936551
"Saravanampatti,Coimbatore",Chai Kings,"Chai Kings, No.398/1A, Sankara Nagar, Sarvanam Patty, Thudiyalur Road, \\n\\n                        Coimbatore - 641035","Bakery,Beverages",4.5,500,150,11.0820951,76.9875997
"Saravanampatti,Coimbatore",Amul Parlour,"Amul Parlour, Saravanampatty to thudiyalur road, Saravanampatti , CBE",Ice Cream,4.7,50,200,11.0810133,76.9923365
"Saravanampatti,Coimbatore",Original nellai lala periya lala sweets,"Original nellai lala periya lala sweets, 158,Thangam Complex,sathy main road,saravanampatti,coimbatore",Sweets,4.5,100,100,11.0767203,77.002299
"Ramanathapuram,Coimbatore",Kwality Walls Frozen Dessert and Ice Cream Shop,"Kwality Walls Frozen Dessert and Ice Cream Shop, NO 470,NANJUNDAPURAM ROAD,RAMANATHAPURAM, District - Coimbatore, STATE - Tamil Nadu",Ice Cream,4.6,100,300,9.3639356,78.8394819
"Ramanathapuram,Coimbatore",Velan Kaappi,"Velan Kaappi, No.1940, Trichy Road, Ramanathapuram",Beverages,4.5,100,100,11.0029589,77.0418097
"Ramanathapuram,Coimbatore",Ibaco,"Ibaco, 133, Shanmugam Street, Trichy Road, Opposite Nilgiris, Ramanathapuram, Coimbatore",Desserts,4.5,100,250,11.0253901,77.1246499
"Ramanathapuram,Coimbatore",Sri Krishna Sweets,"Sri Krishna Sweets, No.1681, U.K.K.Building, Trichy Road, Ramanathapuram, Coimbatore  641015",Sweets,4.5,50,200,10.9981671,76.9885514
"Ramanathapuram,Coimbatore",Sticksy Icecreams,"Sticksy Icecreams, 2, Raja Street, Kallimadai, Singanallur, Coimbatore-5",Desserts,4.7,50,100,10.9941606,77.0166334
"Ramanathapuram,Coimbatore",Sai Brindhavan," Sai Brindhavan, 51-A,THIRUVALLUVAR NAGAR,RAMANATHAPURAM,,	COIMBATORE,",South Indian,4.6,100,200,10.9956408,77.00042
"Ramanathapuram,Coimbatore",LEON BURGER,"LEON BURGER, 72,NANJUNDAPURAM ROAD,RAMANATHAPURAM,COIMBATORE","Fast Food,Snacks",4.5,20,500,10.9925056,76.9976946
"Coi_Ganapathy,Coimbatore",Kwality Walls Frozen Dessert and Ice Cream Shop,"Kwality Walls Frozen Dessert and Ice Cream Shop, 91,OPP CMS SCHOOL,SAKTHY ROAD,GANAPATHY,COIMBATORE, District - Coimbatore, STATE - Tamil Nadu","Desserts,Ice Cream",4.5,100,300,11.0403808,76.9819615
"Coi_Ganapathy,Coimbatore",Cake Kafe,"Cake Kafe, 1433, Sathy Rd, Gopalakrishnapuram, Ganapathypudur, Coimbatore, Tamil Nadu 641006","Bakery,Desserts",4.5,20,150,11.0475909,76.9888522
"Coi_Ganapathy,Coimbatore",The Baby Chef,"The Baby Chef, 23 / 43 FCI ROAD, BPC COLONY, GANAPATHY 641006","Juices,Beverages",4.8,20,150,11.043639,76.9912258
"Coi_Ganapathy,Coimbatore",Sree Annapoorna Sweets & Savouries,"Sree Annapoorna Sweets & Savouries, 43-B, Sathy Main Road, Ganapathy, Coimbatore","Sweets,Desserts",4.6,100,200,11.0464419,76.9879883
"Coi_Ganapathy,Coimbatore",Shero Home Food - Chettinad,"Shero Home Food - Chettinad, NO 7, NALLIYA MUDALIAR LANE, OPP HYUNDAI SHOWROOM, SATHY MAIN ROAD, GANAPATHY, COIMBATORE 641006","South Indian,Home Food",4.7,20,250,11.0443531,76.9834191
"Coi_Ganapathy,Coimbatore",Addipoli Puttu's,"Addipoli Puttu's, 321/171, Giri amman kovil street, Peelamedu, Coimbatore, Tamil Nadu 641004, India","South Indian,Kerala",4.8,20,140,11.0310933,77.0001267
"Coi_Ganapathy,Coimbatore",Amul Parlour,"Amul Parlour, Sathy Main Road , Ganapathy , Cbe",Ice Cream,4.6,50,200,11.0423452,76.9839339
Cuttack,Blast Express,"Blast Express, College Square, Cuttack, Station Bazar, Ward 39, Cuttack Municipal Corporation, orissa","Indian,Chinese",4.5,50,200,20.4634553,85.8685969
Cuttack,Kwality Walls Frozen Dessert and Ice Cream Shop,"Kwality Walls Frozen Dessert and Ice Cream Shop, MAHALAXMI SWEETS: AT-UPPER TELENGA BAZAR PO-TELENGA BAZAR DIST-CUTTACK-9, WARD 21,CUTTACK(ORISSA)-753009",Ice Cream,4.7,100,300,20.4599982,85.8663092
Cuttack,NIC Natural Ice Creams,"NIC Natural Ice Creams, SHOP NO 22 MARKET COMPLEX SEC 6 CUTTACK - 753015","Ice Cream,Desserts",4.6,500,120,20.4736471,85.8397844
Cuttack,Grameen Kulfi,"Grameen Kulfi, SHOP NO 22 MARKET COMPLEX SEC 6 CUTTACK - 753015","Ice Cream,Desserts",4.6,50,120,20.462521,85.8829895
Cuttack,SHREE BALAJI PREMIUM,"SHREE BALAJI PREMIUM, PLOT NO-1, BOND, MUNDA SAHI, NUA SAHI, BIDANASI , CUTTACK","Indian,South Indian",4.5,20,200,20.4793322,85.8398846
Cuttack,Lov Momoz,"Lov Momoz, Plot No-11-2B/1091, Sector-11, CDA Near Sri Balaji South Indian",Chinese,4.5,20,100,20.4804534,85.8210859
Daman,Sam's Alive Again,"Sam's Alive Again , Comm Plot no c7/67//P, N H No 8 Gunjan GIDC Vapi, Valsad.","Beverages,Juices",4.7,20,400,20.3709486,72.923047
Daman,Apsara Ice Creams,"Apsara Ice Creams, Shree enterprise, Shop no-6, The Delta co.op.Ho.Ltd, Chharwada road, GIDC,Gunjan, Vapi-396195.Valsad, Gujarat.","Ice Cream,Desserts",4.5,50,150,20.3765003,72.9235556
Daman,Starbucks Coffee,"Starbucks Coffee, Galaxy High Street,Plot C7/67/P NH 8, Koparli Rd, Vapi, Gujarat 396195","Beverages,Bakery",4.5,50,400,20.3743802,72.9196554
Daman,Woodlands Restaurant,"Woodlands Restaurant, Woodlands Restaurant Gate No. 2 Galaxy High Street Gunjan area Vapi-396195","Biryani,Indian",4.5,20,500,20.3743802,72.9196554
Davanagere,Kwality Walls Frozen Dessert and Ice Cream Shop,"Kwality Walls Frozen Dessert and Ice Cream Shop, JUST EAT: Ground Floor, 760/1B 4th Main 5th Cross, P J Extension, Davanagere, Karnataka- 577002 (HUL- I43A061P2848)","Ice Cream,Desserts",4.6,20,200,14.4614452,75.9168798
Davanagere,The Belgian Waffle Co.,"The Belgian Waffle Co., #2765, Ground Floor ,#3rd main, 3rd Cross Rd, MCC B Block, Davanagere, Karnataka 577004","Desserts,Ice Cream",4.6,50,200,14.4796216,75.9088466
Davanagere,Domino's Pizza,"Domino's Pizza, DP64045,Ground Floor, Site No,789, Door No.1799/2, Vinoba Nagar(4th Main,6th to 14 cross), P B Road, Davanagere City,-577005, Davanagere Mahanagara Palike Area, Davanagere , Karnataka-577005",Pizzas,4.5,50,400,14.463855,75.9059366
"Chukkuwala,Dehradun",Grameen Kulfi,"Grameen Kulfi, 18 Block 2 Chukkuwala Near Shiv Mandir Omkar Road Dehradun - 248001","Ice Cream,Desserts",4.7,20,120,30.3267633,78.0404735
"Chukkuwala,Dehradun",NIC Natural Ice Creams,"NIC Natural Ice Creams, NIC Natural Ice Creams, Shop No 218, Block 2 Chukhuwala Dehradun - 248001","Ice Cream,Desserts",4.6,100,120,30.3345349,78.0411409
"Chukkuwala,Dehradun",Kwality Walls Frozen Dessert and Ice Cream Shop,"Kwality Walls Frozen Dessert and Ice Cream Shop, 2/4, gandhi road, clock tower, Dehradun Nagar Nigam, Dehradun,Clock Tower, Next to Allahabad Bank. Dehradun Uttarakhand - 248001",Ice Cream,4.6,100,300,30.3236905,78.0419779
"Chukkuwala,Dehradun",GLOBAL CLOUDTAIL,"GLOBAL CLOUDTAIL, 3 Ramleela Bazaar Hanuman Chowk Dehradun	","American,Snacks",4.5,20,200,30.3189245,78.0341645
"Chukkuwala,Dehradun",Mj Restaurant - Mj Residency,"Mj Restaurant - Mj Residency, Hotel MJ Residency, Haridwar Road, Near C.M.I. Hospital, Race Course, Dehradun","North Indian,Chinese",4.5,100,350,30.3125254,78.0477369
"Hathibarkala,Dehradun",Keventers - Milkshakes and Desserts,"Keventers - Milkshakes and Desserts, Food Court, Pacific Mall, Rajpur Road, Kishanpur, Dehradun, Uttarakhand 248006","Beverages,Ice Cream",4.5,100,300,30.366465,78.0703122
"Hathibarkala,Dehradun",Healthi8,"Healthi8, 98, Nalapani road Dehradun",Indian,4.7,50,200,30.329043,78.0716857
Diu,Go69 Pizza,"Go69 Pizza, FIRANGIWQADA ,DIU","Pizzas,Fast Food",4.6,50,400,20.7165509,70.9882525
Doddaballapura,Domino's Pizza,"Domino's Pizza, Ground Floor, Katha No. 187/3795/5766, V.S. 12 and 188/3796/5767,V.S.13, at 3rd Stage, Gangadharapura, Doddaballapura Town",Pizzas,4.5,100,400,13.3071548,77.5175123
Doddaballapura,Third Pole Creamery,"Third Pole Creamery, SY NO 1266/74/1, DARGAPURA, BLOCK- 1 BM SRI ROAD, DODDABALLAPUR 561203 BENGALURU, RURAL DISTRICT, KARNATAKA","Ice Cream,Bakery",4.7,20,120,13.2921246,77.5401572
Duliajan,JDS Sweet & Bakery,"JDS Sweet & Bakery, OLD BUS STAND,OPP OIL MARKET, DULIAJAN","Bakery,Sweets",4.5,100,100,27.3561075,95.3222493
Durgapur,Mama Mia! Italian Ice Creams,"Mama Mia! Italian Ice Creams, Ground Floor, at MSAV-21, Bengal Ambuja Township behind Hotel Luxor, Mouza- Faridpur, under Durgapur Municipal Corporation, City Center, Durgapur, Dist- Paschim Barddhaman, West Bengal.","Ice Cream,Ice Cream Cakes",4.5,50,200,23.5391281,87.3047335
Durgapur,Hestia Bake House,"Hestia Bake House, A 9 ABANINDRA BITHI NON COMPANY HOUSING NEAR CHUTARANGA GROUND CITY CENTER DURGAPUR","Bakery,Pizzas",4.6,100,250,23.5423952,87.3002676
Durgapur,The Belgian Waffle Co.,"The Belgian Waffle Co., 3rd Floor, Junction Mall, City Centre, Durgapur, Paschim Burdwan,WB, 713216","Desserts,Beverages",4.7,50,200,23.5391748,87.2909899
Durgapur,Fortune Deli by Fortune Park Pushpanjali,"Fortune Deli by Fortune Park Pushpanjali, Fortune Park Pushpanjali, Durgapur, C-71/A Sahid Khudiram Sarani, City Centre Durgapur 713216","Biryani,Chinese",4.6,20,600,23.5385158,87.2939428
Durgapur,S F C,"S F C, SUBHADIP ACHARYYA GROUND FLOOR FURTURE PLAZA BENACHITY DURGAPUR WARD NO 19 DURGAPUR","American,Snacks",4.5,50,200,23.5568649,87.2768442
Durgapur,Shaka haari Pure Veg,"Shaka haari Pure Veg, 4/12 NIVEDITA PLACE WARD NO 15 DURGAPUR MUNICIPAL CORPORATION PASHIM BARDHAMAN WB 713213","North Indian,Chinese",4.6,50,200,23.5609047,87.2708423
Eluru,Cool Time,"Cool Time, DOOR NO-7679 OPPOSITE AMBICA THEATRE, ELURU, WEST GODAVARI-534001, Eluru (Rural), Eluru, West Godavari, Andhra Pradesh - 534001","Beverages,Ice Cream",4.8,20,150,16.708159,81.1031193
Erode,Magilam,"Magilam, No 20 Andavar st,Anna theatre road,Erode 638011","South Indian,Biryani",4.5,50,250,11.3436234,77.7089575
Erode,MI Pizza,"MI Pizza, No.122/1, Mettur Road, Erode Corporation Ward-26, Erode, Tamil Nadu, 638011",Pizzas,4.7,20,200,11.3435635,77.7177328
Erode,Only shakes,"Only shakes, No.1/1, Poosari Chennimalai St, Next to Subha Hospital, Nggo Colony,, Erode Corporation Ward-43, Erode Corporation Ward-43, Erode, Tamil Nadu - 638001","Beverages,Snacks",4.7,50,250,11.3338248,77.714585
Erode,Sri Krishna Sweets,"Sri Krishna Sweets, 649, KVK Complex, Mettur Rd, Veerappanchatram, Tamil Nadu 638001",Sweets,4.6,100,250,11.3476898,77.7186272
Erode,NIC Natural Ice Creams,"NIC Natural Ice Creams, Shop No 030/3, Dr. Radhakrishnan Road, Teachers Colony, Tamil Nadu 638009","Ice Cream,Desserts",4.6,100,120,11.3319155,77.7065107
Erode,Erode Farm To Juice,"Erode Farm To Juice, 100/6 sampath nagar opp kongu kalaiarangam Erode 11",Beverages,4.7,50,150,11.3377999,77.7084272
Erode,Topi Vappa Biriyani,"Topi Vappa Biriyani, NO.61 , GANDHIJI ROAD,ERODE, Erode, Tamil  Nadu-638001","Biryani,North Indian",4.5,20,250,11.3331331,77.7276445
Erode,Domino's Pizza,"Domino's Pizza, Ground Floor Survey No. 362/2, S.F. No. 278, Erode Village, Veerapan Chatram Municipality, -ErodeTamil Nadu638011",Pizzas,4.5,100,400,11.3280496,77.6936948
Erode,Nisha Briyani & Fast Food,"Nisha Briyani & Fast Food, 125,Krishnampalayam erode ward 14 Erode 638002",South Indian,4.5,20,200,11.354969,77.7267851
Erode,Zero degree Celsius,"Zero degree Celsius, Nanchimuthu Nagar, veerampalayam,Perundrai Road, Eroad-638012","Ice Cream,Desserts",4.6,100,200,11.3268081,77.6913177
Erode,The Cake Shop s Elite,"The Cake Shop s Elite, 95/1, A K Square Gandhiji Street, Karur Bye Pass Road, Erode","Continental,Italian",4.7,20,150,11.3224692,77.7368808
Faizabad,Curry Leaf,"Curry Leaf, Curry leaf, P-05, Awadhpuri, Ayodhya, Faizabad 224001","Indian,South Indian",4.5,20,350,26.7812488,82.1735404
Faridabad,Giani's,"Giani's, SCO - 19, Ashirwad Restro complex, sector 16 Faridabad","Ice Cream,Desserts",4.6,50,300,28.3959484,77.3037394
Faridabad,Grameen Kulfi,"Grameen Kulfi, SHOP NO 14 SCO 90-91 SHUBHAM PLAZA BUILDING SECTOR 16 HUDA MARKET FARIDABAD - 121002","Ice Cream,Desserts",4.6,20,120,28.4100106,77.3197439
Faridabad,Artinci - Indulge Guilt Free!,"Artinci - Indulge Guilt Free!, SHOP NO- 2 TO5 GOPI PLAZA, 16/6 MATHURA ROAD,SHRI SAI BABA MARKET,METRO PILLAR NO 691, OLD FARIDABAD SEC-19 FARIDABAD, Faridabad Town, Faridabad, Faridabad, Haryana - 121002","Healthy Food,Keto",4.6,20,200,28.4149035,77.3113881
Faridabad,EMOI- ARTISANAL ICE CREAMS & GELATO,"EMOI- ARTISANAL ICE CREAMS & GELATO, Shop No. 2 to 5, Gopi Plaza, 16/6 Mathura Road, Shri Sai Baba Market, Metro Pillar no.691, Old Faridabad Sector 19, Faridabad - 121002","Ice Cream,Desserts",4.9,20,200,28.4149035,77.3113881
Faridabad,Mr Ohashi,"Mr Ohashi, scf 73,74 1st floor sector 14 above PNB bank  faridabad","Pan-Asian,Chinese",4.6,20,550,28.3943802,77.3299517
Faridabad,Rolls County,"Rolls County, A-017A, Ground Floor, 81 Puri High Street, Sector 81, Faridabad Town, Faridabad, Faridabad, Haryana - 121004",Snacks,4.5,20,250,28.392606,77.3403438
Faridabad,Natural Ice Cream,"Natural Ice Cream, GF, Rani Bhawan, A -8 Nehru ground, NIT faridabad 121001",Ice Cream,4.6,100,150,28.389165,77.3055819
Faridabad,Paavanam,"Paavanam, BR-301, 81 High Street, Sector-81, Faridabad, Haryana, 121001","South Indian,Desserts",4.5,100,300,28.3929412,77.3405278
Faridabad,GianiIcecream,"GianiIcecream, SCO 32, WORLD STREET BY OMAXE, SECTOR 79, FARIDABAD -  121004","Ice Cream,Desserts",4.5,20,200,28.3869594,77.3536537
Firozpur,Domino's Pizza,"Domino's Pizza, GroundFloor,30,195,MallRoad,NearUdhamSinghChowk,Firozpur,Punjab,152002",Pizzas,4.6,20,400,30.9238901,74.6087506
Firozpur,Sizzling Spices,"Sizzling Spices, House Number . 6  Near Baba Ram Gurudwara ","Chinese,Burgers",4.5,20,200,,
Firozpur,Vicky Chat Centre,"Vicky Chat Centre, House No.12/50 Kille Wali Gali,Patvarian Wala Mohalla, Firozepur","Snacks,Indian",4.5,50,150,30.9597084,74.6088105
Gandhidham,Chhaswala,"Chhaswala, BBZ  South 30, Ground floor, Main market, Gandhidham.  370201",Beverages,4.8,20,150,23.0681682,70.1415487
Gangapur-city,Khana Khajana Hangout,"Khana Khajana Hangout, In front of Narsingh petrol pump, Jaipur Road, near Wardhman Hospital, Gangapur, Rajasthan 322201","North Indian,South Indian",4.5,50,200,26.9124336,75.7872709
Godhra,The Belgian Waffle Co.,"The Belgian Waffle Co., Shop No 3 GF Landmark Complex, Dahod Rd, Godhra, Gujarat 389001","Desserts,Beverages",4.8,20,200,22.7736658,73.6280186
Godhra,Domino's Pizza,"Domino's Pizza, Ground Floor, Shop No. 3/628/1, 3/628/2 and 3/628/B, Trimurti Building ,Opposite Jain Society Godhra",Pizzas,4.6,20,400,22.7758832,73.6236336
Gonda,Baskin Robbins,"Baskin Robbins, baskin robbins, avas vikash colony bharatpuri circular road gonda uttar pradesh 271002","Desserts,Ice Cream",4.5,20,250,27.143144,81.9708464
Gondal,Chhaswala,"Chhaswala, Shop no 18, Real prime, Bapa sitaram chowk, Mavdi road, Mavdi, Rajkot.",Beverages,4.9,100,150,22.2594081,70.7807899
Gondal,Anmol Bhel House,"Anmol Bhel House, NEW NEHRU NAGAR, 80 FT MAIN ROAD, BESIDE NAVNIT DAIRY, SHYAM HALL, RAJKOT-360002",Snacks,4.8,100,100,22.2621886,70.8140392
Gondal,Lala ni Kachchhi Dabeli & Vadapav,"Lala ni Kachchhi Dabeli & Vadapav, RAJAT SOCIETY, STREET NO. 3, NAHERU NAGAR 80 FEET MAIN ROAD, NEAR DEEPAK HARDVER, RAJKOT","Fast Food,Pizzas",4.7,100,150,22.2758677,70.7811485
Gondal,Raj Paubhaji - Gondal Road,"Raj Paubhaji - Gondal Road, Raj Paubhaji, 1/2 Ajanta Complex, Opposite Bombay Cotton, Gondal Road, Rajkot","North Indian,South Indian",4.5,100,200,21.9618352,70.7988664
Gondal,Sona Rupa Ice Cream,"Sona Rupa Ice Cream, Sona Rupa Ice Cream, Bhakti Nager Circle, Bhakti Nagar, Rajkot","Ice Cream,Desserts",4.6,50,200,22.2805349,70.802003
Gondal,The Pinevinta Hotel,"The Pinevinta Hotel, The Pinevinta Hotel, Gondal Road, Near Bombay Petrol Pump, Bhaktinagar Station Plot, Bhakti Nagar, Rajkot, Gujarat, India","Gujarati,Punjabi",4.5,20,300,22.2831579,70.799978
Gondal,Krishna Candy,"Krishna Candy, 3-4, Silver Complex, Opp.Big Bazar, Near. Imperial Heights, Rajkot","Desserts,Ice Cream",4.8,100,60,22.28093,70.7768713
Gondal,New Krishna Candy,"New Krishna Candy, shop no. 26, Sadguru Sanidhya Complex, Opp. Casa Copper Apartment, Satya sai main road, Rajkot","Desserts,Ice Cream",4.8,50,50,22.2797809,70.7697247
Gondal,NIC Natural Ice Creams,"NIC Natural Ice Creams, Shop no 7, Ground Floor, Cosmo Complex, Mahila Chowk, Rajkot, Gujarat-360001","Ice Cream,Desserts",4.6,500,120,22.2940549,70.7860776
Gondal,Mehul'S Kitchen,"Mehul'S Kitchen, Sarvesar Chowk, Dr Yagnik Road, Rajkot","Punjabi,Chinese",4.6,100,500,22.2930204,70.7905122
Gondal,Narayanbhai Bhelwala Junagadhwala,"Narayanbhai Bhelwala Junagadhwala, Shop 1, Merit Complex, Near Kotecha Chowk, University Road, Kotecha Nagar, Rajkot",Chaat,4.5,100,150,22.290139,70.7764763
Gondal,The Fruit Cart,"The Fruit Cart, K krunchy Republic Resutaurant, Amin Marg, Opp. Swami Narayan Temple, Kalawad Road, Rajkot - 360001","Beverages,Juices",4.5,100,200,22.291301,70.7831225
Gondal,Grameen Kulfi,"Grameen Kulfi, Shop no 7, Ground Floor, Cosmo Complex, Mahila Chowk, Rajkot, Gujarat-360001","Ice Cream,Desserts",4.6,100,120,22.2951078,70.7853762
Gondal,Rpj Hotel,"Rpj Hotel, RPJ hotel, Kalavad Road, near everest park, Nana Mava, Rajkot","Punjabi,Chinese",4.6,50,350,22.2734835,70.7570733
Gondal,Mehul'S Kitchen - Qsr,"Mehul'S Kitchen - Qsr, 19, 20, 21, 22, West Gate, Opposite Nagrik Bank, 150 Feet Ring Road, Rajkot","Punjabi,Chinese",4.7,100,400,22.2930204,70.7905122
Gondal,Santosh Pav Bhaji,"Santosh Pav Bhaji, Shop No.6, Kudrat Complex, Near Gangotri dairy, Sadhu Vaswani Road, Rajkot","North Indian,Snacks",4.5,20,200,22.2924183,70.75969
Gondal,Shree Gayatri Dairy Farm (Tejabhai Mithaiwala),"Shree Gayatri Dairy Farm (Tejabhai Mithaiwala), 2  Rushikesh Junction Plot Main Road  Rajkot   360001",Sweets,4.6,20,300,22.3108082,70.8008461
Gondal,Kismat Restaurant,"Kismat Restaurant, Kismat Restaurant, Hanuman Madhi Chowk, Nirmala Convent Road,Rajkot","Gujarati,Thalis",4.5,20,100,22.2998645,70.7754915
Gondal,Shilu'S Chapdi Undhyu,"Shilu'S Chapdi Undhyu, Shilu's Chapdi Undhyu, Empire, Race Course Ring Road, Race Course, Rajkot",Gujarati,4.6,20,200,22.3018222,70.7868017
Gondal,Rollies,"Rollies, 3, Avishkar Apartment, Race Course Ring Road, Race Course, Rajkot","Ice Cream,Beverages",4.5,20,150,22.3017986,70.7867102
Gondal,Baskin Robbins,"Baskin Robbins, Baskin Robbins, Shop No. 4, Race Course plaza, Race Course Ring Road, Rajkot- 360001.","Ice Cream,Desserts",4.6,50,300,22.3038394,70.7875093
Gorakhpur,The Thick Shake Factory,"The Thick Shake Factory, SHOP NO- GF-38, GDA,TOWER, GOLGHAR, Alhadadpur, Zone,No-2, Gorakhpur, Uttar Pradesh - 273001",Beverages,4.8,20,200,26.7533321,83.372661
Gorakhpur,New Durga Madrasi Dosa Center,"New Durga Madrasi Dosa Center, Gita	Press,	Diwan	Dya	Ram	Kali	Bari,	Gorakhpur,	(UTTAR PRADESH)-273001",South Indian,4.5,100,200,26.7448496,83.3655823
Guntur,Aahaa Tasty Foods,"Aahaa Tasty Foods, Badam Bala Koti Reddy, 11-109, Gorantla, Revenue Ward - 57, Guntur, Gorantla, Guntur Municipal Corporation, Andhra Pradesh - 522034",South Indian,4.7,20,250,16.3358281,80.4387372
Guntur,Grameen Kulfi,"Grameen Kulfi, NIC Natural Ice Cream Shop  -Devapuram 5th lane ,Devapuram, Ashok Nagar, Guntur, Andhra Pradesh , 522006","Ice Cream,Desserts",4.5,100,120,16.3103432,80.4251766
Guntur,Paris Waffle Co.,"Paris Waffle Co., """"""CakeZone, D NO 6-7-60,GROUND FLOOR,SAI SARAN, NEAR SAIBABA TEMPLE,7TH LANE,7/3 ARUNDALPET, GUNTUR, Guntur, Andhra-522002"""" ""","Bakery,Desserts",4.6,20,200,16.309261,80.4417696
Guntur,Keytone Macros,"Keytone Macros, D.No.3-28-24/16B, Brundawan Gardens Krishna Nagar ,, Guntur, Guntur, Andhra Pradesh","British,Snacks",4.5,20,250,16.31187,80.4199071
Guntur,TEA TIME,"TEA TIME, 133-143, Inner ring road, near Gandhi  statue , gorantla, Gorantla- Amaravathi  Road, Guntur Municipal Corporation ,  Andhra Pradesh - 522034",Beverages,4.6,20,200,16.3333276,80.4456368
Gurdaspur,Shri Radhe Bikaner,"Shri Radhe Bikaner, Police Line Road, Gurdaspur","Fast Food,North Indian",4.7,20,250,32.0425134,75.4093878
Gurgaon,THEOBROMA,"THEOBROMA, Shop No -44, Sector - 21A, Faridabad Haryana -121001","Desserts,Bakery",4.6,50,800,28.4263401,77.3038913
Gurgaon,The Fit Bar,"The Fit Bar, SHOP NO 109 GREEN PLAZA PATAUDI ROAD KADIPUR GARUGAON HARYANA","Continental,Healthy Food",4.5,50,450,28.4508198,77.0028404
"Paltan Bazaar,Guwahati",Bhukkad,"Bhukkad, House no: 53, South ""Sarania, Near Maszid(old) Ulubari, Ulubari, Kamrup Metropolitan Dist, Kamrup Metropolitan Dist., Assam - 781007","Snacks,Indian",4.7,20,250,26.1756487,91.7633657
"Paltan Bazaar,Guwahati",Slurpy Shakes,"Slurpy Shakes, KP Estates, 2nd Floor, GNB Road, Silpukhuri, Guwahati, Assam, Kamrup Metropolitan Dist, Kamrup Metropolitan Dist., Assam, KP Estates, 2nd Floor, GNB Road, Silpukhuri, Guwahati, Assam, Kamrup Metropoli","Beverages,Ice Cream",4.9,20,150,26.1852136,91.7540044
"Paltan Bazaar,Guwahati",The Dessert Zone,"The Dessert Zone, KP Estates, 2nd Floor, GNB Road, Silpukhuri, Guwahati, Assam, Kamrup Metropolitan Dist, Kamrup Metropolitan Dist., Assam, 781003","Bakery,Desserts",4.6,20,200,26.1852136,91.7540044
"Paltan Bazaar,Guwahati",Pabrai's Fresh & Naturelle Ice Creams,"Pabrai's Fresh & Naturelle Ice Creams, 5 Billpar Road, Next to Coal Depot Sarabhatti, Guwahati-781008 Kamrup (M) Assam","Desserts,Ice Cream",4.7,20,300,26.186957,91.7522107
"Paltan Bazaar,Guwahati",Cupcake Bliss Cake & Desserts,"Cupcake Bliss Cake & Desserts, KP Estates, 2nd Floor, GNB Road, Silpukhuri, Guwahati, Assam, Kamrup Metropolitan Dist, Kamrup Metropolitan Dist., Assam, 781003","Bakery,Desserts",4.8,20,200,26.1852136,91.7540044
"Paltan Bazaar,Guwahati",Burger It Up,"Burger It Up, KP Estates, 2nd Floor, GNB Road, Silpukhuri, Guwahati, Assam, Kamrup Metropolitan Dist, Kamrup Metropolitan Dist., Assam, 781003","American,Fast Food",4.9,20,200,26.1852136,91.7540044
"Paltan Bazaar,Guwahati",Kwality Walls Frozen Dessert and Ice Cream Shop,"Kwality Walls Frozen Dessert and Ice Cream Shop, GNB Road, Silpukhuri, Guwahati-781003, District - Kamrup Metropolitan Dist., STATE - Assam","Desserts,Ice Cream",4.5,100,300,26.1852136,91.7540044
"Paltan Bazaar,Guwahati",Kouzina Kafe -The Food Court,"Kouzina Kafe -The Food Court, KP Estates, 2nd Floor, GNB Road, Silpukhuri, Guwahati, Assam, Kamrup Metropolitan Dist, Kamrup Metropolitan Dist., Assam, 781003","American,Fast Food",4.7,20,200,26.1852136,91.7540044
"Paltan Bazaar,Guwahati",Sundae Everyday Ice Creams,"Sundae Everyday Ice Creams, KP Estates, 2nd Floor, GNB Road, Silpukhuri, Guwahati, Assam, Kamrup Metropolitan Dist, Kamrup Metropolitan Dist., Assam, 781003","Desserts,Ice Cream",4.8,20,100,26.1852136,91.7540044
"Paltan Bazaar,Guwahati",Chai Biskut,"Chai Biskut, House no. 5 Dansh road, Pan Bazar, Guwahati",Chinese,4.6,20,300,26.1848228,91.7414677
"Paltan Bazaar,Guwahati",Kaati Zone Rolls & Wraps,"Kaati Zone Rolls & Wraps, KP Estates, 2nd Floor, GNB Road, Silpukhuri, Guwahati, Assam, Kamrup Metropolitan Dist, Kamrup Metropolitan Dist., Assam, 781003","Beverages,Bengali",4.6,20,200,26.1852136,91.7540044
"Paltan Bazaar,Guwahati",Indiana Burgers,"Indiana Burgers, KP Estates, 2nd Floor, GNB Road, Silpukhuri, Guwahati, Assam, Kamrup Metropolitan Dist, Kamrup Metropolitan Dist., Assam, 781003","American,Beverages",4.9,20,200,26.1850043,91.7600037
"Ganeshguri,Guwahati",Titiksha's Bake Junction,"Titiksha's Bake Junction, Zoo Rd, AIDC, Ambikagirinagar, Guwahati, Assam 781005, India","Bakery,Beverages",4.5,100,200,26.1682399,91.7790988
"Ganeshguri,Guwahati",Wok in the Box,"Wok in the Box, House No. 5 , S.S BHAWAN, GROUND  FLOOR, UDAY PATH, RG BARUAH ROAD,  AIDC, GUWAHATI-781024 (Assam), Dispur ,  Kamrup Metropolitan Dist, Kamrup  Metropolitan Dist., Assam - 781024","Chinese,Oriental",4.6,50,300,26.1694632,91.778505
Gwalior,The Belgian Waffle Co.,"The Belgian Waffle Co., J812 A, City Center, Gwalior MP- 474003","Desserts,Beverages",4.5,50,200,26.2088665,78.1930789
Gwalior,Kwality Walls Frozen Dessert and Ice Cream Shop,"Kwality Walls Frozen Dessert and Ice Cream Shop, Bakers Point: G-183, PATEL NAGAR, GREEN GARDEN ROAD, CITY CENTRE, Gwalior(Madhya Pradesh) -474011",Ice Cream,4.7,100,300,26.2096278,78.1916209
Habra,Kwality Walls Frozen Dessert and Ice Cream Shop,"Kwality Walls Frozen Dessert and Ice Cream Shop, ""JOY GURU ENTERPRISE	NORTH HABRA , BADAMTALA, 172/1 POST OFFICE ROAD. HABRA, NORTH 24 PARGANA, WB-743263","Desserts,Ice Cream",4.6,100,100,22.8443944,88.6542051
Habra,Domino's Pizza,"Domino's Pizza, 174/125, Jessore Road , Hattuba, Habra, North 24 parganas, West Bengl743263",Pizzas,4.8,50,400,22.8422354,88.6570464
Haldia,Rajshahi Biryani,"Rajshahi Biryani, Address-Gangorti Apartment,Kadamtala,Haldia,Purba Medinipur,WB,Pin-721657",Biryani,4.5,20,250,22.0602378,88.0619947
Haldwani,Shakes Villa,"Shakes Villa, HARIPUR NAYAK KARINAGAR KUSUMKHERA,HARIPUR NAYAK",Beverages,4.5,50,200,29.2223035,79.5029644
Haldwani,Gangwar Rasoi,"Gangwar Rasoi, Opposite Old Mahindra Showroom,preetampuri Colony,Rampur Road,Haldwani",North Indian,4.5,20,100,29.1853885,79.5014285
Hapur,Domino's Pizza,"Domino's Pizza, Arjun Nagar Hapur U.P. Upper Ground Floor khasra no 396 Vil Chamri Mohalla Opp SSV Degree College Arjun Nagar Dist Panchsheel nagar Delhi Road Hapur,245101 Uttar Pradesh",Pizzas,4.6,20,400,28.7307479,77.7660623
Haridwar,Patiala Lassi,"Patiala Lassi, Railway road Laltaro pul haridwar",Beverages,4.6,100,150,29.9456906,78.1642478
Hassan,PVR Nalapaka Veg-Nonveg Biriyani Restaurant,"PVR Nalapaka Veg-Nonveg Biriyani Restaurant, veena M S w/o channakeshava Doddi Road, Near M R Road, K R Puram, Hassan, Karnataka-573201","Biryani,Indian",4.5,20,200,13.0111694,76.1062869
Himmatnagar,The Chocolate Room,"The Chocolate Room, Shop no 1 shivalikha trade opp reliance mall mahavirnagar","Sweets,Beverages",4.7,50,200,23.5952915,72.9785353
Hisar,The Firangi Eats,"The Firangi Eats, H no 1 B, New Aggarwal colony, Hisar 125001","Pizzas,Pastas",5,20,100,29.1591741,75.7138695
Hubli,Ice Cream Paradise,"Ice Cream Paradise, Marvel Signet, Vidya Nagar","Ice Cream,Beverages",4.5,50,100,15.362115,75.1178226
Hubli,Polar Bear,"Polar Bear, No.CTC,3548/17,plot no 17 shirur park road 2nd stage,Vidyanagar hubbali,Dharwad   580031",Ice Cream,4.6,100,300,15.361988,75.1177376
Hubli,Vivan's Cake Emporium,"Vivan's Cake Emporium, #06, Marvel signet, Shirur park road, Vidyanagar, hubli",Desserts,4.5,20,120,15.3621074,75.1178253
Imphal,Domino's Pizza,"Domino's Pizza, Thangmeiband Meisnam Leikai, Opposite Ema Panthoibi Temple,Imphal West, Manipur - 795001",Pizzas,4.6,100,400,24.8246336,93.9403467
Imphal,The Belgian Waffle Co.,"The Belgian Waffle Co., PCTC Oil Pump, Khoyathong, D.M College Campus Road, Imphal 795001","Desserts,Beverages",4.5,50,200,24.8184427,93.9413882
Irinjalakuda,Baskin Robbins,"Baskin Robbins, Palm Square, Irinjalakuda Kattoor Rd, Irinjalakuda, Kerala 680121","Desserts,Ice Cream",4.6,20,250,10.3507211,76.2070468
Jabalpur,Top N Town ICE CREAM,"Top N Town ICE CREAM, NEAR MPEB GATE AZAD CHOUK RAMPUR JABALPUR MADHYA PREDSEH 482001","Ice Cream,Desserts",4.7,20,100,23.1324506,79.9108744
"Manasarovar,Jaipur",Mammi Papa Fast Food Centre,"Mammi Papa Fast Food Centre, plot no 37, Modal Town, brahman ki thadi Iskon road, Mansarovar Jaipur","Chinese,South Indian",4.6,50,200,26.8457268,75.8270439
"Manasarovar,Jaipur",Mahi Bakery,"Mahi Bakery, 77/98 MANSAROVAR JAIPUR , Jaipur-II Ward 31, Jaipur, Rajasthan - 302020","Ice Cream,Beverages",4.9,100,300,26.8617818,75.7704439
"Manasarovar,Jaipur",Love birds cafe and fast food,"Love birds cafe and fast food, Shop no. 33 b, kharbas path, shiv bato ka, new sanganer road mansarover, Jaipur, Jaipur, Rajasthan ","Beverages,Fast Food",5,20,400,26.8585917,75.7496202
"Manasarovar,Jaipur",Tony Bakery,"Tony Bakery, 33b kharbas path shiv Vatika magayawas mansarovar jaipur near (Land mark aasna Honda care )","Biryani,Fast Food",5,100,300,26.8697005,75.7406046
"Manasarovar,Jaipur",Aaradhya cafe and fast food,"Aaradhya cafe and fast food, 51,luv kush nagar 1, mansarover,jaipur-11 ward 33,jaipur-11, Rajasthan","Bakery,Fast Food",4.9,100,300,26.883683,75.7899825
Jalgaon,The Belgian Waffle Co.,"The Belgian Waffle Co., Shop No. 7, Ground Floor, Swatantrya Chowk - Pande Chowk Rd, near Mahatma Gandhi Road, Jalgaon, Maharashtra 425001.","Desserts,Beverages",4.7,20,200,21.004045,75.564218
Jalpaiguri,Mio Amore,"Mio Amore, Kadamtala, Word No-17,jalpaiguri",Indian,4.6,100,300,26.5214579,88.7195567
Jalpaiguri,The Belgian Waffle Co.,"The Belgian Waffle Co., Kadamtala,Main Road, Jalpaiguri-735121","Desserts,Ice Cream",4.5,50,200,26.5214579,88.7195567
Jammu,Kwality's Jalebi,"Kwality's Jalebi, Near Peer Baba, Gole Market Gandhi Nagar",North Indian,4.5,20,150,32.7001187,74.8572102
Jamshedpur,BAKING BOND,"BAKING BOND, SAKCHI MARKET, OPPOSITE SAKCHI MISTAN BHANDAR, JAMSHEDPUR - 831001","Bakery,Desserts",4.6,20,199,22.8032298,86.2046484
Jhansi,NIC Natural Ice Creams,"NIC Natural Ice Creams, Shop No 968/1, Aabha Complex,Jeevan Shah, Shakti Nagar Colony, Loha Mandi, Jhansi, Uttar Pradesh 284002","Ice Cream,Desserts",4.7,100,120,25.4537323,78.5681677
Jhansi,Grameen Kulfi,"Grameen Kulfi, Shop No 968,1, Aabha Complex,Jeevan Shah, Shakti Nagar Colony, Loha Mandi, Jhansi, Uttar Pradesh 284002","Ice Cream,Desserts",4.6,50,120,25.4537323,78.5681677
Jhansi,Nimmi Fast Food Center,"Nimmi Fast Food Center, 51, Gandhi Ghar Ka Tapra & Kotwali Ki Dhal, Jhansi, Uttar Pradesh 284002, India",Fast Food,4.5,20,100,25.4599076,78.5767485
Jhansi,Shrinath Icecream,"Shrinath Icecream, Opposite Midway ,kalari churaha,sipri bazar, Jhansi, Uttar Pradesh, India",Ice Cream,4.7,100,100,25.4538783,78.5457083
Jhansi,Hotel The Marvellous,"Hotel The Marvellous, 70/A-5 AYODHYA PURI UNNAO BALAJI MARG JHANSI","Chinese,Italian",4.6,20,400,25.4484257,78.5684594
Jhansi,Star Cafe,"Star Cafe, Near Labour Department Behind Chiranjeev Hospital, Shivaji Nagar, Jhansi","Chinese,Fast Food",4.9,20,300,25.4504122,78.594297
Jodhpur,Vadilal Ice Cream,"Vadilal Ice Cream, 654 12th C, Sardarpura Road, Jodhpur.",Indian,4.5,100,300,26.2716283,73.0067281
Jodhpur,DE MITHAIWALA BABU BHAI,"DE MITHAIWALA BABU BHAI, 458 SARDARPURA 5TH A ROAD , JODHPUR, RAJATHAN","Snacks,Sweets",4.5,100,200,26.279462,73.0058595
Jodhpur,NIC Natural Ice Creams,"NIC Natural Ice Creams, NIC Natural Ice Creams, Shop No-5, Nirmal Tower, 1st Chopasani Road, Sardarpura, Jodhpur, Rajasthan-342003","Ice Cream,Desserts",4.5,1000,120,26.2824962,73.0098795
Jorhat,Star Hive Foods,"Star Hive Foods, NA-ALI,NEAR HABICHOK TINIALI,BONGAL PUKHURI,JORHAT SADAR,JORHAT,ASSAM-785001","Chinese,Snacks",4.6,20,250,26.7451474,94.2132741
Junagadh,Bismillah Eatery point (BEP),"Bismillah Eatery point (BEP), opp to harbhole studio madina medical udhiwala naka sanghadia bazaar Junagadh","Chinese,Mughlai",4.7,20,180,21.5222203,70.4579436
Kadayanallur,NAMMA SPOT,"NAMMA SPOT, 90 M, SINDHAMATHAR PALLIVASAL STREET,KADAYANALLUR MPTY","Arabian,Beverages",4.5,20,250,9.0831379,77.3511059
Kadayanallur,HOTEL NEW RAHUMATH,"HOTEL NEW RAHUMATH, 263B/10B,MAIN ROAD,KADAYANALLUR,KADAYANALLUR MPTY,TIRUNELVELI,TAMILNADU-627751","North Indian,Chinese",4.7,20,200,9.0826722,77.3471759
Kadayanallur,ZAM ZAM HOTEL,"ZAM ZAM HOTEL, 108,MAIN ROAD,MARAVAR VALAKAM,KADAYANALLUR,KADAYANALLUR MPTY,TIRUNELVELI,","North Indian,Chinese",4.6,20,200,9.0778543,77.3451861
Kakinada,TEAZONE,"TEAZONE, ATM centre, near Padmapriya Complex, Bhanugudi Junction Dno:2-31-7,brundavanroad,G4,G5, Bhanugudi Junction, G O Colony, Kakinada, Andhra Pradesh 533003, India",Beverages,4.5,20,100,16.9695849,82.2384499
Kakinada,Grameen Kulfi,"Grameen Kulfi, SHOP NO-5-7-16, NOOKALAMMA TEMPLE ROAD, II TOWN POLICE STATION, SURYARAOPET, EAST GODAVARI DISTRICT, KAKINADA Andhra Pradesh-533004","Ice Cream,Desserts",4.5,100,120,16.9890648,82.2474648
Kalady,PENI ICE CANDY,"PENI ICE CANDY, PENI ICE CANDY (PERFECT SP PVT LTD),4/937,NEAR BMC COLLEGE,TRINE BUILDING,THRIKKAKKARA,682021,THRIKKAKARA CIRCLE,ERNAKULAM,KERALA -682021","Sweets,Desserts",4.8,50,100,10.0307982,76.3352179
Kanchrapara,Wow! Momo,"Wow! Momo, B-9/8 (C.A), Kalyani, P.O. &amp; P.S.-Kalyani, Ward no.12, Pin-741235,KALYANI MUNICIPALITY, Nadia , West Bengal-741235","Tibetan,Healthy Food",4.5,20,300,22.9756681,88.4353601
Kanchrapara,Mio Amore - The Cake Shop,"Mio Amore - The Cake Shop, 24/20/08 Bag Station Road Bagmore, Kanchrapara. 24 Pgs(N) 743145","Desserts,Bakery",4.6,100,150,22.9524124,88.4245631
Kanchrapara,Subham Roll Centre,"Subham Roll Centre, B 16 66  B 16  Kalyani  Kolkata  741235","Snacks,North Indian",4.5,50,200,22.9795904,88.4391388
Kanchrapara,Raja Sweet,"Raja Sweet, b 16/9 i.t.i more kalyani",Sweets,4.5,100,50,22.9802741,88.4381949
Kanchrapara,Domino's Pizza,"Domino's Pizza, Ground Floor Unit B Holding No 71 62 76 Ward No 1 Bag Station Road Mouza Halisahar Kanchrapara District North 24 Pargana 743145 West Bengal",Pizzas,4.5,20,400,22.9516244,88.4262627
Kanchrapara,Pabrai's Fresh And Naturelle Ice Cream,"Pabrai's Fresh And Naturelle Ice Cream, B-11/10/P-41/4KD, Nadia, Kalyani, West Bengal-741235","Ice Cream,Beverages",4.8,20,300,22.9769778,88.4458976
Kanchrapara,Subham Fast Food Center,"Subham Fast Food Center, 45, Rishi Bankim Chandra Rd, Naihati, Kolkata, West Bengal 743165, India",Snacks,4.7,50,100,22.8856312,88.4162091
Kannauj,Hot slices pizza,"Hot slices pizza, G.T. ROAD MAKARAND NAGAR KANNAUJ NPP,UTTAR PRADESH","Pizzas,North Indian",4.5,20,150,27.0397978,79.9069846
Kannur,Domino's Pizza,"Domino's Pizza, Ground Floor, Kannur Central Mall,situated at R.S. Nos/ T.S. No. 831 and 832/1,Block No-16, Ward No-3,Kannur, Kerala- 670001",Pizzas,4.6,50,400,11.8702361,75.3689089
Kannur,HIVE HONEY CAKE,"HIVE HONEY CAKE, 51/3051,3052,3053,NEAR BUS STAND,THAVAKKARA,KANNUR CIRCLE,KANNUR KERALA","Bakery,Desserts",4.5,50,200,11.8663185,75.3704618
Kannur,Crispy Clouds,"Crispy Clouds,  Kakkad Kannur 670005 Kerala","Desserts,Bakery",4.5,20,200,11.8839387,75.3801217
Kannur,MILMA PARLOUR,"MILMA PARLOUR, PODIKUNDU,P.O PALLIKUNNU, KANNUR",Ice Cream,4.9,20,150,11.8878901,75.3866528
Kanpur,NIC Natural Ice Creams,"NIC Natural Ice Creams, Shop No. 118/146, Gom No.5, Kausalpuri, R K Nagar, Kanpur,UP- 208012","Ice Cream,Desserts",4.6,1000,120,26.4678605,80.3128344
Kanpur,Domino's Pizza,"Domino's Pizza, Ground Floor ,Shop No.6 & 7,Food Court, South X Mall,Plot No.9,O Block,Scheme-2,Kidwai Nagar",Pizzas,4.5,100,400,26.429354,80.3331519
Kanpur,Grameen Kulfi,"Grameen Kulfi, Shop No. 118/146, Gom No.5, Kausalpuri, R K Nagar, Kanpur,UP- 208012","Ice Cream,Desserts",4.7,100,120,26.4678605,80.3128344
Kanpur,Rolla Rappa,"Rolla Rappa, 12 Block, Main Durga Mandir, 128/ B/129, Market Road, Near Govind  Nagar Thana, B Block, Govind  Nagar, Kanpur","North Indian,Chinese",4.5,20,300,26.4494756,80.3037261
Kanpur,Zyaka Grills,"Zyaka Grills, 1st Floor, 11 L.I.G. W-Block, Keshav Nagar, Juhi Kalan","Fast Food,Snacks",4.8,20,200,26.4248818,80.3174364
Kanpur,Mazaya Express,"Mazaya Express, Shop no 1 ,2 & 3 hn 39/4 ahsan manji topkhana chowk sarafa kanpur","North Indian,Mughlai",4.6,20,400,26.4696634,80.3495949
Kanpur,Thaggu Ke Laddoo,"Thaggu Ke Laddoo, Shop no. 1               2 UHM Emergency Market 15/297 civil lines kanpur","Desserts,Sweets",4.5,100,350,26.4406414,80.3099173
Kanpur,Wok Upto Wok,"Wok Upto Wok, 13/386 (1) Civil Lines Kanpur","Chinese,Fast Food",4.6,20,150,26.4816068,80.3448139
Kanpur,Jenny's Brownies,"Jenny's Brownies, 13 381 Civil Line, Kanpur Tahsil, Kanpur Nagar, , Uttar Pradesh, 208001","Desserts,Waffle",4.7,20,300,26.4772251,80.3545065
Kapurthala,Domino's Pizza,"Domino's Pizza, GroundFloor,GurbaxComplex,RamneekChowk,SultanpurRoad,Kapurthala,Punjab,144601",Pizzas,4.8,20,400,31.3722365,75.3788456
Karimnagar,NIC Natural Ice Creams,"NIC Natural Ice Creams, NIC Natural Ice Creams,7-1-135, Vidyanagar, Mankamma Thota, Karimnagar, Telangana 505001","Ice Cream,Desserts",4.6,500,120,18.4384005,79.118621
Karimnagar,Kwality Walls Frozen Dessert and Ice Cream Shop,"Kwality Walls Frozen Dessert and Ice Cream Shop, Annapurna Foodie Spot: H.No. 2-10-2003, Bhagyanagar, Karimnagar (Urban), Karimnagar, Telangana-505001 (HUL- I44A877P1900)","Ice Cream,Desserts",4.5,100,200,17.406498,78.4772439
Karimnagar,Grameen Kulfi,"Grameen Kulfi, NIC Natural Ice Creams,7-1-135, Vidyanagar, Mankamma Thota, Karimnagar, Telangana 505001","Ice Cream,Desserts",4.5,50,120,18.4384005,79.118621
Karimnagar,Swagath Food Court,"Swagath Food Court, H.No.2-10-1586, Chaithanyapuri, Karimnagar(Urban), Karimnagar, Telangana-505002","South Indian,Snacks",4.6,20,250,18.4506458,79.1206185
Karunagappaly,OpenGrill Restaurant,"OpenGrill Restaurant, ONK Junction Kayamkulam,Kayamkulam Circle,Alappuzha,Kerala",Arabian,4.6,20,200,9.1761034,76.4947166
Karur,Apsara Ice Creams,"Apsara Ice Creams, 88, Covai Road, Behind K.S. Mess, NRMP Street, Karur - 639 002","Ice Cream,Desserts",4.5,50,150,10.959474,78.0734507
Karur,THE FALOODA SHOP,"THE FALOODA SHOP, 49, Kovai Main Road, Near Amaravathi Hospital, Vaiyapurinagar, Karur",Beverages,4.5,20,200,10.9604879,78.0682478
Karur,City Cakes,"City Cakes, 84,Old By-Pass Road Corner,Karur-639001","Bakery,Fast Food",4.7,20,250,10.9538518,78.0594874
Katihar,Paradise  Restaurant,"Paradise  Restaurant, KMCH Road, Katihar, Katihar, Katihar Sadar, Katihar, Bihar-854106",Biryani,5,20,250,25.5809252,87.5542592
Katni,SHRI KRISHNA FOOD ZONE,"SHRI KRISHNA FOOD ZONE, VIVEKANAND CHOAK LAKHERA KATNI MP , KATNI - 483501","North Indian,Beverages",5,100,200,23.8184145,80.3950909
"Vyttila,Kochi",Domino's Pizza,"Domino's Pizza, Shop/Unit No. C.C.Xxix/783 E, ?Tharayil Chambers?Cochin Corporation Door No. 29/783 E,Survey No. 949/1,Nh-47 Bye-Pass,Vyttila,CochinKerala682019",Pizzas,4.6,100,400,9.968199,76.3182346
"Vyttila,Kochi",Gourmet Ice Cream Cakes by Baskin Robbins,"Gourmet Ice Cream Cakes by Baskin Robbins, 56/825, Anagha Building, Shihab Thangal Road, Panampilly Nagar, Ernakulam, Kerala - 682036","Desserts,Ice Cream",4.5,20,200,9.9540887,76.2987506
"Vyttila,Kochi",Lazza Ice Creams,"Lazza Ice Creams, N.H Byepass, Opp. Gold Souk Mall, Nr Vytila Overbridge, October Road, Vytila, Ponnurunni, Vyttila, Kochi, Kerala 682028",Desserts,4.5,50,300,9.9776218,76.3161473
"Vyttila,Kochi",Thankoos Restaurant,"Thankoos Restaurant, 11/475B,Thankoos Fast Food, Kundannoor, Maradu, 682304, Ernakulam","Kerala,Biryani",4.7,20,299,9.936614,76.3173619
"Vyttila,Kochi",Supreme Bakers,"Supreme Bakers, Near Idea Cellular, Chalikkavattom, Vennala, Ponnurunni, Vyttila, Ernakulam","Bakery,Desserts",4.6,1000,180,9.9774366,76.317899
"Kalamassery,Kochi",Al Taza,"Al Taza, 3/624-A OPP. NIPPON TOYOTA, RAJAGIRI P O , KALAMASSERY, Kalamassery Circle, Ernakulam, Kerala-683104","Beverages,Arabian",4.5,100,400,10.0542702,76.3213276
"Kalamassery,Kochi",Eat Right by GRANDE LIFE,"Eat Right by GRANDE LIFE, DOOR NO.21/493A ,EMBRATH BUILDING,KALAMASSERY MUNICIPALITY,SEA PRT AIRPORT ROAD , NEAR MUHIYADHEEN MASJID , VADACODE P O , KAIPADAMUGAL , Kalamassery Circle, Ernakulam, Kerala-682021","Salads,Healthy Food",4.5,50,200,10.0413357,76.3383295
"Aluva,Kochi",MEMORIES KITCHEN,"MEMORIES KITCHEN, DOOR NO 7/189 A,POOTHULLIPARAMBIL HOUSE,KURIKKOTH KADAVU,KUNJUNNIKKARA,ALUVA,ERNAKULAM	, KALAMASSERY CIRCLE,ERNAKULAM,KERALA - 683108","Kerala,Seafood",4.9,20,220,10.1088799,76.3398496
"Aluva,Kochi",CAKE HUT,"CAKE HUT, PULINCHODU ,ALUVA-MUNNAR RD,OPPOSITE METRO PILLAR 41,ALUVA,KERALA 683101",Bakery,4.7,50,150,10.1144787,76.4703657
"Aluva,Kochi",Al Taza,"Al Taza, DOOR NO 22/241 (2), TAMARINAD RAJADAHANI BUILDING, PULINCHODE JN, ALUVA, Aluva Circle, Ernakulam, Kerala-683101","Beverages,Arabian",4.5,100,400,10.1001621,76.3475856
"Aluva,Kochi",Shenoy's Pure Veg,"Shenoy's Pure Veg, NH Bypass, Aluva, Kochi",South Indian,4.6,500,250,10.1003709,76.3570382
"Panampilly Nagar,Kochi",Cake Hut,"Cake Hut, Cake Hut, MG Road(Opposite to Shipyard Gate, Thevara Bridge, Perumanoor, Kochi, Kerala 682013",Bakery,4.9,20,200,9.9551309,76.2925785
"Panampilly Nagar,Kochi",Snoosh Ice Cream Palour,"Snoosh Ice Cream Palour, Benista Building, Panampilly Nagar, Kochi",Ice Cream,4.5,500,600,9.9600011,76.2973716
"Panampilly Nagar,Kochi",Baskin Robbins,"Baskin Robbins, 54,751A,Baskin Robbins,Zesterday,Varkey Square,Kaloor kadvantara Road,Near Kumaranasan junction,Ernamkulam, Kerala 682017","Desserts,Ice Cream",4.5,100,250,9.9855009,76.295886
"Panampilly Nagar,Kochi",Shifus Momos,"Shifus Momos, GCDA Shopping Complex, Panampilly Nagar, Kochi","Chinese,Fast Food",4.5,100,200,9.962921,76.295959
"Panampilly Nagar,Kochi",Pai Brothers 36 Varieties of Dosa,"Pai Brothers 36 Varieties of Dosa, Near Little Flower Church, Sahodaran Ayyappan Road, kadavanthra",South Indian,4.5,100,300,9.9679739,76.3039369
"Panampilly Nagar,Kochi",green bowl,"green bowl, HB6 ,sreyas arcade ,1st floor opp:bank of Baroda",Salads,4.6,100,200,,
"Panampilly Nagar,Kochi",The Cococane Juicery,"The Cococane Juicery, Thevara, Mattummel junction near CK bakery",Beverages,4.5,100,200,9.9429859,76.2948861
"Panampilly Nagar,Kochi",Skei Ice creams,"Skei Ice creams, 55/3183,LOTEMP SYSTEMS (P) LIMITED CHERUPARAMBATH ROAD KADAVANTHARA KOCHI-682020",Ice Cream,4.5,50,200,9.9654136,76.3020514
"Panampilly Nagar,Kochi",Mel-Bs,"Mel-Bs, S. A. Road, Janatha Junction, Vyttila, Kochi","Fast Food,Beverages",4.6,50,300,9.9679926,76.3120351
"Panampilly Nagar,Kochi",Grameen Kulfi,"Grameen Kulfi, Shop no 55/63-B (South-West Portion) Parambithara Road, Panampilly Nagar, Cochin, Kerala-682036, Ernakulam, Kerala-682036","Ice Cream,Desserts",4.8,50,120,9.961683,76.292794
"Panampilly Nagar,Kochi",CAFE 17,"CAFE 17, C.T. Towers, R Madhavan Nair Rd, Kochi, Kerala 682016","Continental,Italian",4.5,100,400,9.9591377,76.2878631
"Panampilly Nagar,Kochi",Gourmet Ice Cream Cakes by Baskin Robbins,"Gourmet Ice Cream Cakes by Baskin Robbins, 54,751A,Baskin Robbins,Zesterday,Varkey Square,Kaloor kadvantara Road,Near Kumaranasan junction,Ernamkulam, Kerala 682017","Desserts,Ice Cream",4.5,20,250,9.9816358,76.2998842
"Panampilly Nagar,Kochi",Caravan,"Caravan, CSI Shopping Complex, Broadway South End, Marine Drive, Kochi",Ice Cream,4.6,100,300,9.977461,76.2783406
"Panampilly Nagar,Kochi",Cold Stone Creamery,"Cold Stone Creamery, 56/299,Lower Ground Floor, Main Avenue, Ernakulam, Panampilly Nagar, Kochi","Ice Cream,Desserts",4.5,20,200,9.9585368,76.2960604
"Panampilly Nagar,Kochi",Sugardaddy Cane Juice,"Sugardaddy Cane Juice, Sugar Daddy Cane Juice Circle | Ernakulam, Near Buy 'n' Save supermarket | Durbal Hall Road Pallimukku | Ernakulam, Kochi, Kerala 682016","Beverages,Juices",4.7,20,200,9.9542961,76.3022406
"Panampilly Nagar,Kochi",Bharat Coffee House,"Bharat Coffee House, Broadway Road, Broadway, Marine Drive, Kochi",South Indian,4.5,100,200,9.9774314,76.2778499
"Panampilly Nagar,Kochi",OhMyCake,"OhMyCake, 63/2959 ADONAI TOWER NEAR METRO STATION KADAVANTHARA, District - Ernakulam, STATE - Kerala 682011",Bakery,4.6,100,200,9.9664541,76.2970979
"Panampilly Nagar,Kochi",NIC Natural Ice Creams,"NIC Natural Ice Creams, Shop no 55/63-B (South-West Portion) Parambithara Road, Panampilly Nagar, Cochin, Kerala-682036, Ernakulam, Kerala-682036","Ice Cream,Desserts",4.6,100,120,9.961683,76.292794
"Panampilly Nagar,Kochi",The Aurum Cloud,"The Aurum Cloud, BUILDING NO 62/4786 A1, AURUM FOODWORKS, MAHAKAVI G ROAD, IYYATTUMUKKU JUNCTION, ERNAKULAM, 682011, Eranakulam Circle, Ernakulam, Kerala-682011","Kerala,North Indian",4.6,100,200,9.9735922,76.2876478
"Panampilly Nagar,Kochi",Domino's Pizza,"Domino's Pizza, First Floor, No.39/4153 M.G. Road,Ravi PuramErnakulamCorporation",Pizzas,4.5,100,400,9.9595399,76.2888609
"Panampilly Nagar,Kochi",Paul's Creamery,"Paul's Creamery, Pauls Creamery, Ground Floor, AL- Hissan Building, Door No:63/454 (A). Opp SkylineTopaz, Jawahar Nagar, Kaloor, Kadavanthara Road, Ernakulam Dist,Kerala-682017","Desserts,Ice Cream",4.6,100,200,9.9733057,76.2977619
"Panampilly Nagar,Kochi",HEARTH KITCHEN,"HEARTH KITCHEN, HEARTH KITCHEN PVT LTD CC 55/410 Fourth Cross Road Panampilly Nagar, Thrikkakara Circle, Ernakulam, Kerala - 682036",Pizzas,4.5,50,200,9.9632579,76.2945071
"Panampilly Nagar,Kochi",Donut Factory,"Donut Factory, Ground Floor, GudFud Tower, Panampilly Nagar, Kochi",Desserts,4.5,50,300,9.9556197,76.2964221
"Panampilly Nagar,Kochi",Nellikka Restaurant,"Nellikka Restaurant, 56/1621 A 2,PATTATHIL BUILDING GROUND FLOOR ,KADAVANTHRA,682020",Indian,4.6,100,200,9.9562492,76.3022092
"Panampilly Nagar,Kochi",Ratna Vilas,"Ratna Vilas, Government Press Rd, Marine Drive, Kochi, Kerala 682011, India","Indian,Snacks",4.6,20,140,9.9694843,76.2828388
"Panampilly Nagar,Kochi",The Belgian Waffle Co.,"The Belgian Waffle Co., 61-854-A6, Maneparambil arcade, Ravipuram, Ernakulam, Kerala - 682015","Desserts,Beverages",4.5,100,200,9.9580726,76.2892935
"Panampilly Nagar,Kochi",The Big Scoop,"The Big Scoop, Lera Foods,63/1128 C, Salim Rajan road, Gandhi Nagar,Nagar,Kadavanthra Kochi, Ernakulam- 682017","Ice Cream,Desserts",4.5,20,200,9.9778868,76.2952419
"Panampilly Nagar,Kochi",Milano Ice Cream,"Milano Ice Cream, Mahatma Gandhi Rd, Ravipuram, Perumanoor, Ernakulam, Kerala 682036",Ice Cream,4.6,50,200,9.9618295,76.2886645
"Panampilly Nagar,Kochi",Natural Ice Cream,"Natural Ice Cream, Door No 39/1592 -A3, Laxman Chambers ,S. A. Road, Near Valanjambalam Temple,Ernakulam, Kochi - 682016.",Ice Cream,4.7,100,150,9.9650625,76.2895291
"Panampilly Nagar,Kochi",The Burger Junction,"The Burger Junction, No. 60/8, B-1, Kizhavana Rd, above Union Bank of India, Panampilly Nagar, Ernakulam, Kerala 682015","American,Fast Food",4.6,100,500,9.9558975,76.2959643
"Lulu Mall,Kochi",Baskin Robbins,"Baskin Robbins, Baskin Robbins,Lulu Mall, Food Court, 3rd Floor, Cochin-682024, Kerala","Ice Cream,Desserts",4.7,50,300,10.0264881,76.3086201
"Fort Kochi,Kochi",Domino's Pizza,"Domino's Pizza, Ground Floor, MC Square, P. T. Jacob Road,Thopumpadi, Kochi, Kerala",Pizzas,4.5,50,400,9.9353778,76.2568196
"Fort Kochi,Kochi",Cake Hut,"Cake Hut, Parry Junction, Thoppumpady, Kochi, Kerala 682005",Bakery,4.6,20,200,9.9318417,76.2665852
"Thrippunithura,Kochi",Fruzo Cane Juicery,"Fruzo Cane Juicery, Karingachira,Oppo.Passport Office,Thrippunithura","Juices,Beverages",4.6,20,200,9.9520339,76.358285
"Thrippunithura,Kochi",Mummy's Uduppi Restaurant,"Mummy's Uduppi Restaurant, 999 pillar no, North Fort Gate, Vadakkekotta, Thrippunithura, Kochi, Kerala 682301","North Indian,South Indian",4.5,500,250,9.9519277,76.3364555
"Thrippunithura,Kochi",NM Idli Kada,"NM Idli Kada, SH 15, Tripunithara, Ernakulam, Kerala",South Indian,4.5,50,250,9.9451179,76.3455606
"Thrippunithura,Kochi",Cake Hut,"Cake Hut, Maradu,Thrippunithura",Bakery,4.7,50,200,9.9367552,76.3180429
"Thrippunithura,Kochi",The CocoCane Juicery,"The CocoCane Juicery, North Fort Gate, New Door No: XXXIX/256, Ambiyil Building, Thrippunithura, Kochi, Kerala 682301",Beverages,4.6,50,200,9.9528268,76.3401806
"Thrippunithura,Kochi",Hotel lakshmi Nivas,"Hotel lakshmi Nivas, Petta Jn,Poonithura","South Indian,North Indian",4.6,1000,200,9.9500956,76.3312788
"Thrippunithura,Kochi",Domino's Pizza,"Domino's Pizza, Ground Floor,Kalarikkas K-Mall,Old Survey Nos.1157, 1159, and 1160, Old Survey sub division No.2,3,5,2, Re Survey No.43, Re Survey Sub Division No. 43, 62, 63, Re Survey 682301 Kerala",Pizzas,4.5,100,400,,
Kodaikanal,Darescape,"Darescape, 19/127, Observatory Rd, opposite Pudukadu Pirivu, Kodaikanal, Tamil Nadu 624103, India","Fast Food,Snacks",4.6,20,250,10.2302756,77.4700387
Kolhapur,The Belgian Waffle Co.,"The Belgian Waffle Co., Ground Floor, Shop No 14, Ayodhya Park, Ward E, Kolhapur","Desserts,Beverages",4.6,100,200,16.7063772,74.2525046
Kolhapur,MM Masura (Uma Talkies),"MM Masura (Uma Talkies), Uma Talkies, opp  Savitribai Phule Hospital ",North Indian,4.6,50,400,,
Kolhapur,Hotel Mirchi,"Hotel Mirchi, Opp. Lishan Hotel, Kadamwadi Road, Kadamwadi, Laxminarayan Nagar, Kadamwadi, Kolhapur, Maharashtra 416003, India",Indian,4.5,100,350,16.7085447,74.2535447
Kolhapur,Cream Stone Ice Cream,"Cream Stone Ice Cream, 2113/Kh 1A & 2014/14/1A, Ayodhya Park, Kawala Naka, Kohlapur City, 416005","Ice Cream,Desserts",4.5,20,250,16.7074714,74.2495914
Kolhapur,Natural Ice Cream,"Natural Ice Cream, Atharva, 4th dimention , near Mahalaxmi Apparel, 4th lane, Rajarampuri,Kolhapur 416008",Ice Cream,4.8,100,150,16.6958517,74.2416368
Kolhapur,Grameen Kulfi,"Grameen Kulfi, Shop No 1046/KH/4/E, Bagal Chowk, Near S. Electricals, KolhapurCity Ward-E, Kolhapur, Maharashtra, 416001","Ice Cream,Desserts",4.5,20,120,16.6979147,74.2381082
Kolhapur,The Kerala Cafe,"The Kerala Cafe, 212/1/5 E ward devne colony kadamvadi, kolhapur",South Indian,4.6,20,350,16.7098967,74.2534992
Kollam,Supreme Spice Street,"Supreme Spice Street, 17/2736/2108 SPICE STREET MUSALIAR BUILDINGS TOWN LIMIT KADAPPAKKADA KOLLAM","Chinese,Indian",4.5,100,600,8.8954914,76.6081195
Kollam,Sri Sharavana Bhavan,"Sri Sharavana Bhavan, Chinakada, opposite clock tower, kollam","Indian,Chinese",4.6,500,100,8.8851661,76.5908666
Kollam,Domino's Pizza,"Domino's Pizza, Ground floor, Kurumpelil Avenue, N0.10/1099/488 P, Polayathodu Junction, Vadakkevila Village,Phone No. 0474-2753333/2769901/02/03/04/05 Kollam- 691 021",Pizzas,4.5,100,400,8.8787245,76.6091084
Kollam,Al Taza,"Al Taza, 431834772 AL TAZAPOLAYATHODUKOLLAM Kollam CircleT.B. Centre Kollam Kerala691001","Beverages,Arabian",4.6,100,400,8.879008,76.6078065
Kollam,LABBAS HOTEL,"LABBAS HOTEL, 27/1245,HOTEL LABBAS,MADANNADA,VADAKKEVILA PO,KOLLAM,ERAVIPURAM CIRCLE,KOLLAM","North Indian,Chinese",4.5,20,300,8.8691945,76.6135453
